{"type":"FeatureCollection","totalFeatures":305,"features":[{"type":"Feature","id":"AUFZUGOGD.1856","geometry":{"type":"Point","coordinates":[16.457745041024758,48.22091217599767]},"geometry_name":"SHAPE","properties":{"OBJECTID":1856,"STATION":"HARDEGGASSE","LINIE":"U2","BEMERKUNG":"Aufzug fährt vom Aufnahmgebäude Ausgang Hardeggasse auf den Mittelbahnsteig","ANLAGEN_ID":"AR A02","GRUPPEN_ID":null,"BETREIBER":"Wiener Linien","SE_ANNO_CAD_DATA":null}},{"type":"Feature","id":"AUFZUGOGD.1857","geometry":{"type":"Point","coordinates":[16.430917494172835,48.20622431399511]},"geometry_name":"SHAPE","properties":{"OBJECTID":1857,"STATION":"DONAUMARINA","LINIE":"U2","BEMERKUNG":"Aufzug fährt vom stadteinwärtigen Aufnahmegebäude Ausgang Wehlistraße auf den U2-Seitenbahnsteig (Fahrtrichtung 1 nach Karlsplatz)","ANLAGEN_ID":"DM A02","GRUPPEN_ID":null,"BETREIBER":"Wiener Linien","SE_ANNO_CAD_DATA":null}},{"type":"Feature","id":"AUFZUGOGD.1858","geometry":{"type":"Point","coordinates":[16.431094226014327,48.20606046089369]},"geometry_name":"SHAPE","properties":{"OBJECTID":1858,"STATION":"DONAUMARINA","LINIE":"U2","BEMERKUNG":"Aufzug fährt vom stadteinwärtigen Aufnahmegebäude Ausgang Wehlistraße auf den U2-Seitenbahnsteig (Fahrtrichtung 2 nach Aspernstraße)","ANLAGEN_ID":"DM A03","GRUPPEN_ID":null,"BETREIBER":"Wiener Linien","SE_ANNO_CAD_DATA":null}},{"type":"Feature","id":"AUFZUGOGD.1859","geometry":{"type":"Point","coordinates":[16.382406398030486,48.15316842907658]},"geometry_name":"SHAPE","properties":{"OBJECTID":1859,"STATION":"ALAUDAGASSE","LINIE":"U1","BEMERKUNG":"Aufzug fährt vom U1 Bahnsteig an die Oberfläche Ausgang Per Albin Hansson Siedlung.","ANLAGEN_ID":"AL A03","GRUPPEN_ID":null,"BETREIBER":"Wiener Linien","SE_ANNO_CAD_DATA":null}},{"type":"Feature","id":"AUFZUGOGD.1860","geometry":{"type":"Point","coordinates":[16.414373465585303,48.1749403295731]},"geometry_name":"SHAPE","properties":{"OBJECTID":1860,"STATION":"ENKPLATZ","LINIE":"U3","BEMERKUNG":"Aufzug fährt vom Bahnsteig an die Oberfläche Ausgang Gottschalkgasse.","ANLAGEN_ID":"EK A02","GRUPPEN_ID":null,"BETREIBER":"Wiener Linien","SE_ANNO_CAD_DATA":null}},{"type":"Feature","id":"AUFZUGOGD.1861","geometry":{"type":"Point","coordinates":[16.38533249426517,48.20600764039198]},"geometry_name":"SHAPE","properties":{"OBJECTID":1861,"STATION":"LANDSTRASSE","LINIE":"U3","BEMERKUNG":"Aufzug fährt vom vom Zwischengeschoß an die Oberfläche Ausgang Landstr.Hauptstr.","ANLAGEN_ID":"LA A02","GRUPPEN_ID":null,"BETREIBER":"Wiener Linien","SE_ANNO_CAD_DATA":null}},{"type":"Feature","id":"AUFZUGOGD.1862","geometry":{"type":"Point","coordinates":[16.508710768699675,48.22689761172103]},"geometry_name":"SHAPE","properties":{"OBJECTID":1862,"STATION":"SEESTADT","LINIE":"U2","BEMERKUNG":"Aufzug fährt vom U2 Bahnsteig zum Ausgang Seestadt Promenade.","ANLAGEN_ID":"EE A01","GRUPPEN_ID":null,"BETREIBER":"Wiener Linien","SE_ANNO_CAD_DATA":null}},{"type":"Feature","id":"AUFZUGOGD.1863","geometry":{"type":"Point","coordinates":[16.40017212574467,48.14165987518465]},"geometry_name":"SHAPE","properties":{"OBJECTID":1863,"STATION":"OBERLAA","LINIE":"U1","BEMERKUNG":"Aufzug fährt vom Übergang/Brücke Zugang zur U-Bahn und Therme an die Oberfläche Ausgang Biererlgasse (N+1) bzw. Laaer Berg Straße (N0).","ANLAGEN_ID":"LO A04","GRUPPEN_ID":null,"BETREIBER":"Wiener Linien","SE_ANNO_CAD_DATA":null}},{"type":"Feature","id":"AUFZUGOGD.1864","geometry":{"type":"Point","coordinates":[16.42427793680462,48.237863581506026]},"geometry_name":"SHAPE","properties":{"OBJECTID":1864,"STATION":"ALTE DONAU","LINIE":"U1","BEMERKUNG":"Aufzug fährt vom Aufnahmegebäude Ausgang Arbeiterstrandbadstraße auf den U1-Mittelbahnsteig (Fahrtrichtung 1 nach Leopoldau)","ANLAGEN_ID":"AD A01","GRUPPEN_ID":null,"BETREIBER":"Wiener Linien","SE_ANNO_CAD_DATA":null}},{"type":"Feature","id":"AUFZUGOGD.1865","geometry":{"type":"Point","coordinates":[16.359018679731616,48.18058497994361]},"geometry_name":"SHAPE","properties":{"OBJECTID":1865,"STATION":null,"LINIE":null,"BEMERKUNG":"Aufzug fährt vom unteren Durchgang zu Bahnsteig der Linen 6, 18, 62 WLB Richtung Kaiserebersdorf (6), Schlachthausgasse (18), Kärntner Ring - Oper (62, WLB) und an die Oberfläche(Bushaltestelle).","ANLAGEN_ID":"MP A06","GRUPPEN_ID":null,"BETREIBER":"Wiener Linien","SE_ANNO_CAD_DATA":null}},{"type":"Feature","id":"AUFZUGOGD.1866","geometry":{"type":"Point","coordinates":[16.349394532144395,48.180527006244574]},"geometry_name":"SHAPE","properties":{"OBJECTID":1866,"STATION":null,"LINIE":null,"BEMERKUNG":"Aufzug fährt vom Bahnsteig der Linien 6,18,62, WLB Fahrtrichtung Kaiserebersdorf (6), Schlachthausgasse (18), Kärnter Ring - Oper (62, WLB) an die Oberfläche.","ANLAGEN_ID":"EI A01","GRUPPEN_ID":null,"BETREIBER":"Wiener Linien","SE_ANNO_CAD_DATA":null}},{"type":"Feature","id":"AUFZUGOGD.1867","geometry":{"type":"Point","coordinates":[16.384562401280668,48.20573575688078]},"geometry_name":"SHAPE","properties":{"OBJECTID":1867,"STATION":"LANDSTRASSE","LINIE":"U3","BEMERKUNG":"Aufzug fährt vom Zwischengeschoß auf den ÖBB Bahnsteig Richtung Floridsdorf, Gänserndorf.","ANLAGEN_ID":"LA A04","GRUPPEN_ID":null,"BETREIBER":"Wiener Linien","SE_ANNO_CAD_DATA":null}},{"type":"Feature","id":"AUFZUGOGD.1868","geometry":{"type":"Point","coordinates":[16.383026473734265,48.162824203783906]},"geometry_name":"SHAPE","properties":{"OBJECTID":1868,"STATION":"ALTES LANDGUT","LINIE":"U1","BEMERKUNG":"Aufzug fährt vom U1 Bahnsteig an die Oberfläche Ausgang Favoritenstraße.","ANLAGEN_ID":"AT A04","GRUPPEN_ID":null,"BETREIBER":"Wiener Linien","SE_ANNO_CAD_DATA":null}},{"type":"Feature","id":"AUFZUGOGD.1869","geometry":{"type":"Point","coordinates":[16.398691926411807,48.14259820661057]},"geometry_name":"SHAPE","properties":{"OBJECTID":1869,"STATION":"OBERLAA","LINIE":"U1","BEMERKUNG":"Aufzug fährt vom U1 Bahnsteig an die Oberfläche Ausgang Laaer Berg Straße.","ANLAGEN_ID":"LO A03","GRUPPEN_ID":null,"BETREIBER":"Wiener Linien","SE_ANNO_CAD_DATA":null}},{"type":"Feature","id":"AUFZUGOGD.1870","geometry":{"type":"Point","coordinates":[16.383030142831124,48.1628175112782]},"geometry_name":"SHAPE","properties":{"OBJECTID":1870,"STATION":"ALTES LANDGUT","LINIE":"U1","BEMERKUNG":"Aufzug fährt vom U1 Bahnsteig an die Oberfläche Ausgang Favoritenstraße.","ANLAGEN_ID":"AT A05","GRUPPEN_ID":null,"BETREIBER":"Wiener Linien","SE_ANNO_CAD_DATA":null}},{"type":"Feature","id":"AUFZUGOGD.1871","geometry":{"type":"Point","coordinates":[16.374010647161665,48.186037131808575]},"geometry_name":"SHAPE","properties":{"OBJECTID":1871,"STATION":"SÜDTIROLER PLATZ - HAUPTBAHNHOF","LINIE":"U1","BEMERKUNG":"Aufzug fährt von Passage zu Bahnsteig der Linie 18 Richtung Burggasse","ANLAGEN_ID":"SL A04","GRUPPEN_ID":null,"BETREIBER":"Wiener Linien","SE_ANNO_CAD_DATA":null}},{"type":"Feature","id":"AUFZUGOGD.1872","geometry":{"type":"Point","coordinates":[16.37325868133525,48.185623350130804]},"geometry_name":"SHAPE","properties":{"OBJECTID":1872,"STATION":"SÜDTIROLER PLATZ - HAUPTBAHNHOF","LINIE":"U1","BEMERKUNG":"Aufzug fährt vom Bahnsteig der Linie 18 Richtung Schlachthausgasse zur Oberfläche Ausgang Laxenburgerstraße.","ANLAGEN_ID":"SL A08","GRUPPEN_ID":null,"BETREIBER":"Wiener Linien","SE_ANNO_CAD_DATA":null}},{"type":"Feature","id":"AUFZUGOGD.1873","geometry":{"type":"Point","coordinates":[16.368483301532816,48.18416887844824]},"geometry_name":"SHAPE","properties":{"OBJECTID":1873,"STATION":null,"LINIE":"18","BEMERKUNG":"Aufzug fährt vom Bahnsteig Linie 18 Richtung Schlachthausgasse an die Oberfläche Ausgang Äußerer Wiedner Gürtel (Mazda).","ANLAGEN_ID":"BL A01","GRUPPEN_ID":null,"BETREIBER":"Wiener Linien","SE_ANNO_CAD_DATA":null}},{"type":"Feature","id":"AUFZUGOGD.1874","geometry":{"type":"Point","coordinates":[16.368222499626924,48.184376757849776]},"geometry_name":"SHAPE","properties":{"OBJECTID":1874,"STATION":null,"LINIE":"18","BEMERKUNG":"Aufzug fährt vom Bahnsteig Linie 18 Richtung Burggasse an die Oberfläche Ausgang Innerer Wiedner Gürtel.","ANLAGEN_ID":"BL A02","GRUPPEN_ID":null,"BETREIBER":"Wiener Linien","SE_ANNO_CAD_DATA":null}},{"type":"Feature","id":"AUFZUGOGD.1875","geometry":{"type":"Point","coordinates":[16.38446416457075,48.205745950672174]},"geometry_name":"SHAPE","properties":{"OBJECTID":1875,"STATION":"LANDSTRASSE","LINIE":"U3","BEMERKUNG":"Aufzug fährt vom Zwischengeschoß auf den ÖBB Bahnsteig Richtung Meidling, Flughafen.","ANLAGEN_ID":"LA A05","GRUPPEN_ID":null,"BETREIBER":"Wiener Linien","SE_ANNO_CAD_DATA":null}},{"type":"Feature","id":"AUFZUGOGD.1876","geometry":{"type":"Point","coordinates":[16.38699548852101,48.14543238771709]},"geometry_name":"SHAPE","properties":{"OBJECTID":1876,"STATION":"NEULAA","LINIE":"U1","BEMERKUNG":"Aufzug fährt vom U1 Bahnsteig an die Oberfläche Ausgang Ada Christengasse bzw. Bahnlände.","ANLAGEN_ID":"LN A01","GRUPPEN_ID":null,"BETREIBER":"Wiener Linien","SE_ANNO_CAD_DATA":null}},{"type":"Feature","id":"AUFZUGOGD.1877","geometry":{"type":"Point","coordinates":[16.384978811476334,48.145920263187485]},"geometry_name":"SHAPE","properties":{"OBJECTID":1877,"STATION":"NEULAA","LINIE":"U1","BEMERKUNG":"Aufzug fährt vom U1 Bahnsteig an die Oberfläche Ausgang Favoritenstraße/Bahnlände.","ANLAGEN_ID":"LN A02","GRUPPEN_ID":null,"BETREIBER":"Wiener Linien","SE_ANNO_CAD_DATA":null}},{"type":"Feature","id":"AUFZUGOGD.1878","geometry":{"type":"Point","coordinates":[16.400940573083517,48.14207347465781]},"geometry_name":"SHAPE","properties":{"OBJECTID":1878,"STATION":"OBERLAA","LINIE":"U1","BEMERKUNG":"Aufzug fährt vom U1 Bahnsteig an die Oberfläche Ausgang Kurpark Oberlaa.","ANLAGEN_ID":"LO A01","GRUPPEN_ID":null,"BETREIBER":"Wiener Linien","SE_ANNO_CAD_DATA":null}},{"type":"Feature","id":"AUFZUGOGD.1879","geometry":{"type":"Point","coordinates":[16.400927507771744,48.14204968658701]},"geometry_name":"SHAPE","properties":{"OBJECTID":1879,"STATION":"OBERLAA","LINIE":"U1","BEMERKUNG":"Aufzug fährt vom U1 Bahnsteig an die Oberfläche Ausgang Kurpark Oberlaa.","ANLAGEN_ID":"LO A02","GRUPPEN_ID":null,"BETREIBER":"Wiener Linien","SE_ANNO_CAD_DATA":null}},{"type":"Feature","id":"AUFZUGOGD.1880","geometry":{"type":"Point","coordinates":[16.32163687206814,48.19752773965182]},"geometry_name":"SHAPE","properties":{"OBJECTID":1880,"STATION":"JOHNSTRASSE","LINIE":"U3","BEMERKUNG":"Aufzug fährt vom U3 Bahnsteig an die Oberfläche Ausgang Wasserwelt.","ANLAGEN_ID":"JO A02","GRUPPEN_ID":null,"BETREIBER":"Wiener Linien","SE_ANNO_CAD_DATA":null}},{"type":"Feature","id":"AUFZUGOGD.1881","geometry":{"type":"Point","coordinates":[16.308924223550253,48.20398407717203]},"geometry_name":"SHAPE","properties":{"OBJECTID":1881,"STATION":"KENDLERSTRASSE","LINIE":"U3","BEMERKUNG":"Aufzug fährt vom U3 Bahnsteig an die Oberfläche Ausgang Steinbruchstraße.","ANLAGEN_ID":"KR A03","GRUPPEN_ID":null,"BETREIBER":"Wiener Linien","SE_ANNO_CAD_DATA":null}},{"type":"Feature","id":"AUFZUGOGD.1882","geometry":{"type":"Point","coordinates":[16.443682153604385,48.250754035108244]},"geometry_name":"SHAPE","properties":{"OBJECTID":1882,"STATION":"KAGRANER PLATZ","LINIE":"U1","BEMERKUNG":"Aufzug fährt vom U1-Mittelbahnsteig in das stadtauwärtige Aufnahmegebäude Ausgang Kagraner Platz","ANLAGEN_ID":"KT A03","GRUPPEN_ID":null,"BETREIBER":"Wiener Linien","SE_ANNO_CAD_DATA":null}},{"type":"Feature","id":"AUFZUGOGD.1883","geometry":{"type":"Point","coordinates":[16.33108624250073,48.180425121935485]},"geometry_name":"SHAPE","properties":{"OBJECTID":1883,"STATION":"NIEDERHOFSTRASSE","LINIE":"U6","BEMERKUNG":"Aufzug fährt vom U6 Bahnsteig ins Zwischengeschoß (Telefon) und an die Oberfläche Ausgang Vivenotgasse.","ANLAGEN_ID":"NH A02","GRUPPEN_ID":null,"BETREIBER":"Wiener Linien","SE_ANNO_CAD_DATA":null}},{"type":"Feature","id":"AUFZUGOGD.1884","geometry":{"type":"Point","coordinates":[16.392922485288167,48.218740062054756]},"geometry_name":"SHAPE","properties":{"OBJECTID":1884,"STATION":"PRATERSTERN","LINIE":"U1","BEMERKUNG":"Aufzug fährt vom U2-Mittelbahnsteig in das Zwischengeschoss (Übergang zur U1) und in die Passage","ANLAGEN_ID":"PR A04","GRUPPEN_ID":null,"BETREIBER":"Wiener Linien","SE_ANNO_CAD_DATA":null}},{"type":"Feature","id":"AUFZUGOGD.1885","geometry":{"type":"Point","coordinates":[16.392884990212416,48.21874801167572]},"geometry_name":"SHAPE","properties":{"OBJECTID":1885,"STATION":"PRATERSTERN","LINIE":"U1","BEMERKUNG":"Aufzug fährt vom U2-Mittelbahnsteig in das Zwischengeschoss (Übergang zur U1) und in die Passage","ANLAGEN_ID":"PR A05","GRUPPEN_ID":null,"BETREIBER":"Wiener Linien","SE_ANNO_CAD_DATA":null}},{"type":"Feature","id":"AUFZUGOGD.1886","geometry":{"type":"Point","coordinates":[16.419931186410615,48.170273859903304]},"geometry_name":"SHAPE","properties":{"OBJECTID":1886,"STATION":"SIMMERING","LINIE":"U3","BEMERKUNG":"Aufzug fährt vom Bahnsteig der Linie U3 an die Oberfläche Ausgang Simmeringer Hauptstraße und auf den ÖBB Bahnsteig.","ANLAGEN_ID":"SA A02","GRUPPEN_ID":null,"BETREIBER":"Wiener Linien","SE_ANNO_CAD_DATA":null}},{"type":"Feature","id":"AUFZUGOGD.1887","geometry":{"type":"Point","coordinates":[16.448576812208984,48.219331559339174]},"geometry_name":"SHAPE","properties":{"OBJECTID":1887,"STATION":"STADLAU","LINIE":"U2","BEMERKUNG":"Aufzug fährt vom stadteinwärtigen Aufnahmegebäude Ausgang Kaisermühlenstraße auf den ÖBB-Mittelbahnsteig und auf den U2-Mittelbahnsteig","ANLAGEN_ID":"SD A02","GRUPPEN_ID":null,"BETREIBER":"Wiener Linien","SE_ANNO_CAD_DATA":null}},{"type":"Feature","id":"AUFZUGOGD.1888","geometry":{"type":"Point","coordinates":[16.450393054755693,48.22012513929097]},"geometry_name":"SHAPE","properties":{"OBJECTID":1888,"STATION":"STADLAU","LINIE":"U2","BEMERKUNG":"Aufzug fährt vom stadtauswärtigen Aufnahmegebäude Ausgang Konstanziagasse auf den U2-Mittelbahnsteig","ANLAGEN_ID":"SD A03","GRUPPEN_ID":null,"BETREIBER":"Wiener Linien","SE_ANNO_CAD_DATA":null}},{"type":"Feature","id":"AUFZUGOGD.1889","geometry":{"type":"Point","coordinates":[16.380084518003372,48.2070229384825]},"geometry_name":"SHAPE","properties":{"OBJECTID":1889,"STATION":"STUBENTOR","LINIE":"U3","BEMERKUNG":"Aufzug fährt vom Seitenbahnsteig (Fahrtrichtung 2 nach Ottakring) auf den Seitenbahnsteig (Fahrtrichtung 1 nach Simmering) und in das Aufnahmegebäude Ausgang Parkring","ANLAGEN_ID":"SE A02","GRUPPEN_ID":null,"BETREIBER":"Wiener Linien","SE_ANNO_CAD_DATA":null}},{"type":"Feature","id":"AUFZUGOGD.1890","geometry":{"type":"Point","coordinates":[16.32950384075855,48.19766329978243]},"geometry_name":"SHAPE","properties":{"OBJECTID":1890,"STATION":"SCHWEGLERSTRASSE","LINIE":"U3","BEMERKUNG":"Aufzug fährt vom U3 Bahnsteig zu Oberfläche Benedikt Schellingergasse  und zur Kanzlei Maschinentechnik.","ANLAGEN_ID":"SH A02","GRUPPEN_ID":null,"BETREIBER":"Wiener Linien","SE_ANNO_CAD_DATA":null}},{"type":"Feature","id":"AUFZUGOGD.1891","geometry":{"type":"Point","coordinates":[16.37329060402213,48.21762944725572]},"geometry_name":"SHAPE","properties":{"OBJECTID":1891,"STATION":"SCHOTTENRING","LINIE":"U2","BEMERKUNG":"Aufzug fährt vom U2-Bahnsteig in das Zwischengeschoß Ausgang Donaukai und in das stadtauswärtige Aufnahmegebäude Ausgang Herminengasse","ANLAGEN_ID":"SR A03","GRUPPEN_ID":null,"BETREIBER":"Wiener Linien","SE_ANNO_CAD_DATA":null}},{"type":"Feature","id":"AUFZUGOGD.1892","geometry":{"type":"Point","coordinates":[16.371589200485047,48.20804861838642]},"geometry_name":"SHAPE","properties":{"OBJECTID":1892,"STATION":"STEPHANSPLATZ","LINIE":"U1","BEMERKUNG":"Aufzug fährt vom U1-Bahnsteig (beide Fahrtrichtungen) auf den U3-Seitenbahnsteig (Fahrtrichtung 2 nach Ottakring) und auf den U3-Seitenbahnsteig (Fahrtrichtung nach Simmering) und in das Zwischengeschoß","ANLAGEN_ID":"SZ A02","GRUPPEN_ID":null,"BETREIBER":"Wiener Linien","SE_ANNO_CAD_DATA":null}},{"type":"Feature","id":"AUFZUGOGD.1893","geometry":{"type":"Point","coordinates":[16.371613757893005,48.20804147199176]},"geometry_name":"SHAPE","properties":{"OBJECTID":1893,"STATION":"STEPHANSPLATZ","LINIE":"U1","BEMERKUNG":"Aufzug fährt vom U1-Bahnsteig (beide Fahrtrichtungen) auf den U3-Seitenbahnsteig (Fahrtrichtung 2 nach Ottakring) und auf den U3-Seitenbahnsteig (Fahrtrichtung nach Simmering) und in das Zwischengeschoß","ANLAGEN_ID":"SZ A03","GRUPPEN_ID":null,"BETREIBER":"Wiener Linien","SE_ANNO_CAD_DATA":null}},{"type":"Feature","id":"AUFZUGOGD.1894","geometry":{"type":"Point","coordinates":[16.382423879327064,48.219422935176496]},"geometry_name":"SHAPE","properties":{"OBJECTID":1894,"STATION":"TABORSTRASSE","LINIE":"U2","BEMERKUNG":"Aufzug fährt vom U2-Bahnsteig in das stadtauswärtige Aufnahmegebäude Ausgang Novaragasse","ANLAGEN_ID":"TB A03","GRUPPEN_ID":null,"BETREIBER":"Wiener Linien","SE_ANNO_CAD_DATA":null}},{"type":"Feature","id":"AUFZUGOGD.1895","geometry":{"type":"Point","coordinates":[16.373631912652108,48.18646557770892]},"geometry_name":"SHAPE","properties":{"OBJECTID":1895,"STATION":"SÜDTIROLER PLATZ - HAUPTBAHNHOF","LINIE":"U1","BEMERKUNG":"Aufzug fährt vom Bahnsteig ins Zwischengeschoß zum alten Südtirolerplatz und ins Zwischengeschoß zum Aufgang Favoritenstraße.","ANLAGEN_ID":"SL A02","GRUPPEN_ID":null,"BETREIBER":"Wiener Linien","SE_ANNO_CAD_DATA":null}},{"type":"Feature","id":"AUFZUGOGD.1896","geometry":{"type":"Point","coordinates":[16.380122522869048,48.207063374559745]},"geometry_name":"SHAPE","properties":{"OBJECTID":1896,"STATION":"STUBENTOR","LINIE":"U3","BEMERKUNG":"Aufzug fährt vom Seitenbahnsteig (Fahrtrichtung 2 nach Ottakring) auf den Seitenbahnsteig (Fahrtrichtung 1 nach Simmering) und in das Aufnahmegebäude Ausgang Parkring","ANLAGEN_ID":"SE A03","GRUPPEN_ID":null,"BETREIBER":"Wiener Linien","SE_ANNO_CAD_DATA":null}},{"type":"Feature","id":"AUFZUGOGD.1897","geometry":{"type":"Point","coordinates":[16.37116375047153,48.217187061115595]},"geometry_name":"SHAPE","properties":{"OBJECTID":1897,"STATION":"SCHOTTENRING","LINIE":"U2","BEMERKUNG":"Aufzug fährt vom U2-Bahnsteig auf den U4-Mittelbahnsteig und in das Aufnahmegebäude Ausgang Schottenring","ANLAGEN_ID":"SR A02","GRUPPEN_ID":null,"BETREIBER":"Wiener Linien","SE_ANNO_CAD_DATA":null}},{"type":"Feature","id":"AUFZUGOGD.1898","geometry":{"type":"Point","coordinates":[16.33950879938421,48.195967290522425]},"geometry_name":"SHAPE","properties":{"OBJECTID":1898,"STATION":"WESTBAHNHOF","LINIE":"U3","BEMERKUNG":"Aufzug fährt vom U3 Bahnsteig zu Zwischengeschoß (Stationswart)  und zum U6 Bahnsteig.","ANLAGEN_ID":"WS A03","GRUPPEN_ID":null,"BETREIBER":"Wiener Linien","SE_ANNO_CAD_DATA":null}},{"type":"Feature","id":"AUFZUGOGD.1899","geometry":{"type":"Point","coordinates":[16.5045418772887,48.234491451858695]},"geometry_name":"SHAPE","properties":{"OBJECTID":1899,"STATION":"ASPERN NORD","LINIE":"U2","BEMERKUNG":"Aufzug fährt vom U2 Bahnsteig in die Passage zu allen Ausgängen der Station.","ANLAGEN_ID":"AN A03","GRUPPEN_ID":null,"BETREIBER":"Wiener Linien","SE_ANNO_CAD_DATA":null}},{"type":"Feature","id":"AUFZUGOGD.1900","geometry":{"type":"Point","coordinates":[16.50453490454257,48.23453746399786]},"geometry_name":"SHAPE","properties":{"OBJECTID":1900,"STATION":"ASPERN NORD","LINIE":"U2","BEMERKUNG":"Aufzug fährt vom U2 Bahnsteig in die Passage zu allen Ausgängen der Station.","ANLAGEN_ID":"AN A04","GRUPPEN_ID":null,"BETREIBER":"Wiener Linien","SE_ANNO_CAD_DATA":null}},{"type":"Feature","id":"AUFZUGOGD.1901","geometry":{"type":"Point","coordinates":[16.508063970622747,48.22552127643799]},"geometry_name":"SHAPE","properties":{"OBJECTID":1901,"STATION":"SEESTADT","LINIE":"U2","BEMERKUNG":"Aufzug fährt vom U2 Bahnsteig zum Ausgang Seestadtstraße.","ANLAGEN_ID":"EE A03","GRUPPEN_ID":null,"BETREIBER":"Wiener Linien","SE_ANNO_CAD_DATA":null}},{"type":"Feature","id":"AUFZUGOGD.1902","geometry":{"type":"Point","coordinates":[16.462076407522368,48.24567861817152]},"geometry_name":"SHAPE","properties":{"OBJECTID":1902,"STATION":null,"LINIE":"26","BEMERKUNG":"Aufzug fährt vom Bahnsteig zum Ausgang Gewerbepark Stadlau.","ANLAGEN_ID":"GWP A01","GRUPPEN_ID":null,"BETREIBER":"Wiener Linien","SE_ANNO_CAD_DATA":null}},{"type":"Feature","id":"AUFZUGOGD.1903","geometry":{"type":"Point","coordinates":[16.4621835460033,48.24565421833101]},"geometry_name":"SHAPE","properties":{"OBJECTID":1903,"STATION":null,"LINIE":"26","BEMERKUNG":"Aufzug fährt vom Bahnsteig zum Ausgang Gewerbepark Stadlau.","ANLAGEN_ID":"GWP A02","GRUPPEN_ID":null,"BETREIBER":"Wiener Linien","SE_ANNO_CAD_DATA":null}},{"type":"Feature","id":"AUFZUGOGD.1904","geometry":{"type":"Point","coordinates":[16.40021047190858,48.1416195592215]},"geometry_name":"SHAPE","properties":{"OBJECTID":1904,"STATION":"OBERLAA","LINIE":"U1","BEMERKUNG":"Aufzug fährt vom Übergang/Brücke Zugang zur U-Bahn und Therme an die Oberfläche Ausgang Biererlgasse (N+1) bzw. Laaer Berg Straße (N0).","ANLAGEN_ID":"LO A05","GRUPPEN_ID":null,"BETREIBER":"Wiener Linien","SE_ANNO_CAD_DATA":null}},{"type":"Feature","id":"AUFZUGOGD.1905","geometry":{"type":"Point","coordinates":[16.286502821974157,48.19096718959102]},"geometry_name":"SHAPE","properties":{"OBJECTID":1905,"STATION":"UNTER ST.VEIT","LINIE":"U4","BEMERKUNG":"Aufzug fährt vom Bahnsteig der Linie U4 Gleis 1 Richtung Heiligenstadt an die Oberfläche.","ANLAGEN_ID":"UV A01","GRUPPEN_ID":null,"BETREIBER":"Wiener Linien","SE_ANNO_CAD_DATA":null}},{"type":"Feature","id":"AUFZUGOGD.1601","geometry":{"type":"Point","coordinates":[16.260359227052337,48.19618087236589]},"geometry_name":"SHAPE","properties":{"OBJECTID":1601,"STATION":"Lilienberggasse","LINIE":null,"BEMERKUNG":"Aufzug fährt von der Lilienberggasse auf den Hackinger Steg","ANLAGEN_ID":"WL_1","GRUPPEN_ID":null,"BETREIBER":"Stadt Wien","SE_ANNO_CAD_DATA":null}},{"type":"Feature","id":"AUFZUGOGD.1602","geometry":{"type":"Point","coordinates":[16.391190989551056,48.18785592022561]},"geometry_name":"SHAPE","properties":{"OBJECTID":1602,"STATION":"Ghegastraße","LINIE":null,"BEMERKUNG":"Aufzug fährt von der Ghegastraße in die Passage","ANLAGEN_ID":"WL_2","GRUPPEN_ID":null,"BETREIBER":"Stadt Wien","SE_ANNO_CAD_DATA":null}},{"type":"Feature","id":"AUFZUGOGD.1603","geometry":{"type":"Point","coordinates":[16.356510133572137,48.198946974616945]},"geometry_name":"SHAPE","properties":{"OBJECTID":1603,"STATION":"Stiegengasse","LINIE":null,"BEMERKUNG":"Aufzug fährt von der Stiegngasse auf die Ebene Windmühlgasse","ANLAGEN_ID":"WL_3","GRUPPEN_ID":null,"BETREIBER":"Stadt Wien","SE_ANNO_CAD_DATA":null}},{"type":"Feature","id":"AUFZUGOGD.1604","geometry":{"type":"Point","coordinates":[16.33205718747548,48.16348827489374]},"geometry_name":"SHAPE","properties":{"OBJECTID":1604,"STATION":"Eibesbrunnergasse","LINIE":null,"BEMERKUNG":"Aufzug fährt von der Eibesbrunnergasse auf den Eibesbrunnersteg","ANLAGEN_ID":"WL_4","GRUPPEN_ID":null,"BETREIBER":"Stadt Wien","SE_ANNO_CAD_DATA":null}},{"type":"Feature","id":"AUFZUGOGD.1605","geometry":{"type":"Point","coordinates":[16.331680823503333,48.16311054272796]},"geometry_name":"SHAPE","properties":{"OBJECTID":1605,"STATION":"Eibesbrunnengasse,Tscherttegasse","LINIE":null,"BEMERKUNG":"Aufzug fährt von der Eibesbrunnergasse auf den Eibesbrunnersteg","ANLAGEN_ID":"WL_5","GRUPPEN_ID":null,"BETREIBER":"Stadt Wien","SE_ANNO_CAD_DATA":null}},{"type":"Feature","id":"AUFZUGOGD.1606","geometry":{"type":"Point","coordinates":[16.35628258914631,48.236142911830605]},"geometry_name":"SHAPE","properties":{"OBJECTID":1606,"STATION":"Skywalk","LINIE":null,"BEMERKUNG":"Aufzug fährt vom Döblinger Gürtel auf den Skywalk","ANLAGEN_ID":"WL_6","GRUPPEN_ID":null,"BETREIBER":"Stadt Wien","SE_ANNO_CAD_DATA":null}},{"type":"Feature","id":"AUFZUGOGD.1607","geometry":{"type":"Point","coordinates":[16.282966322879883,48.13551584181887]},"geometry_name":"SHAPE","properties":{"OBJECTID":1607,"STATION":"Liesinger Platz","LINIE":null,"BEMERKUNG":"Aufzug fährt vom Liesinger Platz auf den darüber liegenden Steg","ANLAGEN_ID":"WL_7","GRUPPEN_ID":null,"BETREIBER":"Stadt Wien","SE_ANNO_CAD_DATA":null}},{"type":"Feature","id":"AUFZUGOGD.1608","geometry":{"type":"Point","coordinates":[16.279861235273863,48.136890343541936]},"geometry_name":"SHAPE","properties":{"OBJECTID":1608,"STATION":"Riverside","LINIE":null,"BEMERKUNG":"Aufzug fährt vom Vorplatz Riverside auf die darüber liegende Ebene","ANLAGEN_ID":"WL_8","GRUPPEN_ID":null,"BETREIBER":"Stadt Wien","SE_ANNO_CAD_DATA":null}},{"type":"Feature","id":"AUFZUGOGD.1609","geometry":{"type":"Point","coordinates":[16.362154132990472,48.21396451760762]},"geometry_name":"SHAPE","properties":{"OBJECTID":1609,"STATION":"Universitätsring","LINIE":null,"BEMERKUNG":"Aufzug fährt von der Oberfläche in die Passage","ANLAGEN_ID":"WL_9","GRUPPEN_ID":null,"BETREIBER":"Stadt Wien","SE_ANNO_CAD_DATA":null}},{"type":"Feature","id":"AUFZUGOGD.1610","geometry":{"type":"Point","coordinates":[16.36946681720059,48.2026401660621]},"geometry_name":"SHAPE","properties":{"OBJECTID":1610,"STATION":"Opernring","LINIE":null,"BEMERKUNG":"Aufzug fährt von der Oberfläche in die Passage","ANLAGEN_ID":"WL_10","GRUPPEN_ID":null,"BETREIBER":"Stadt Wien","SE_ANNO_CAD_DATA":null}},{"type":"Feature","id":"AUFZUGOGD.1611","geometry":{"type":"Point","coordinates":[16.36973547674506,48.20202854826027]},"geometry_name":"SHAPE","properties":{"OBJECTID":1611,"STATION":"Opernring","LINIE":null,"BEMERKUNG":"Aufzug fährt von der Oberfläche in die Passage","ANLAGEN_ID":"WL_11","GRUPPEN_ID":null,"BETREIBER":"Stadt Wien","SE_ANNO_CAD_DATA":null}},{"type":"Feature","id":"AUFZUGOGD.1612","geometry":{"type":"Point","coordinates":[16.45163917932792,48.227264344365665]},"geometry_name":"SHAPE","properties":{"OBJECTID":1612,"STATION":"Smolagasse","LINIE":null,"BEMERKUNG":"Aufzug fährt vom Fußweg in der Smolagasse auf den Vernholzsteg","ANLAGEN_ID":"WL_12","GRUPPEN_ID":null,"BETREIBER":"Stadt Wien","SE_ANNO_CAD_DATA":null}},{"type":"Feature","id":"AUFZUGOGD.1613","geometry":{"type":"Point","coordinates":[16.45208307553934,48.22714698606989]},"geometry_name":"SHAPE","properties":{"OBJECTID":1613,"STATION":"Vernholzgasse","LINIE":null,"BEMERKUNG":"Aufzug fährt von der Vernholzgasse auf den Vernholzsteg","ANLAGEN_ID":"WL_13","GRUPPEN_ID":null,"BETREIBER":"Stadt Wien","SE_ANNO_CAD_DATA":null}},{"type":"Feature","id":"AUFZUGOGD.1614","geometry":{"type":"Point","coordinates":[16.260990792697275,48.19662195564189]},"geometry_name":"SHAPE","properties":{"OBJECTID":1614,"STATION":"Hackingersteg","LINIE":null,"BEMERKUNG":"Aufzug fährt vom Vorplatz des Bahnhofs auf den Hackiner Steg","ANLAGEN_ID":"WL_14","GRUPPEN_ID":null,"BETREIBER":"Stadt Wien","SE_ANNO_CAD_DATA":null}},{"type":"Feature","id":"AUFZUGOGD.1615","geometry":{"type":"Point","coordinates":[16.424081412613695,48.23798603556844]},"geometry_name":"SHAPE","properties":{"OBJECTID":1615,"STATION":"ALTE DONAU","LINIE":"U1","BEMERKUNG":"Aufzug fährt vom Aufnahmegebäude Ausgang Arbeiterstrandbadstraße auf den U1-Seitenbahnsteig (Fahrtrichtung 2 nach Reumannplatz)","ANLAGEN_ID":"AD A02","GRUPPEN_ID":null,"BETREIBER":"Wiener Linien","SE_ANNO_CAD_DATA":null}},{"type":"Feature","id":"AUFZUGOGD.1616","geometry":{"type":"Point","coordinates":[16.41576797213797,48.232628034746675]},"geometry_name":"SHAPE","properties":{"OBJECTID":1616,"STATION":"KAISERMÜHLEN - V.I.C.","LINIE":"U1","BEMERKUNG":"Aufzug fährt vom Aufnahmegebäude Ausgang Schüttaustraße auf den U1-Seitenbahnsteig (Fahrtrichtung 2 nach Reumannplatz)","ANLAGEN_ID":"KM A02","GRUPPEN_ID":null,"BETREIBER":"Wiener Linien","SE_ANNO_CAD_DATA":null}},{"type":"Feature","id":"AUFZUGOGD.1617","geometry":{"type":"Point","coordinates":[16.41603124265991,48.2324478067877]},"geometry_name":"SHAPE","properties":{"OBJECTID":1617,"STATION":"KAISERMÜHLEN - V.I.C.","LINIE":"U1","BEMERKUNG":"Aufzug fährt vom Aufnahmegebäude Ausgang Schüttaustraße auf den U1-Seitenbahnsteig (Fahrtrichtung 1 nach Leopoldau)","ANLAGEN_ID":"KM A01","GRUPPEN_ID":null,"BETREIBER":"Wiener Linien","SE_ANNO_CAD_DATA":null}},{"type":"Feature","id":"AUFZUGOGD.1618","geometry":{"type":"Point","coordinates":[16.443662191341353,48.25075555023879]},"geometry_name":"SHAPE","properties":{"OBJECTID":1618,"STATION":"KAGRANER PLATZ","LINIE":"U1","BEMERKUNG":"Aufzug fährt vom U1-Mittelbahnsteig in das stadtauwärtige Aufnahmegebäude Ausgang Kagraner Platz","ANLAGEN_ID":"KT A04","GRUPPEN_ID":null,"BETREIBER":"Wiener Linien","SE_ANNO_CAD_DATA":null}},{"type":"Feature","id":"AUFZUGOGD.1619","geometry":{"type":"Point","coordinates":[16.44299136380755,48.24991417167471]},"geometry_name":"SHAPE","properties":{"OBJECTID":1619,"STATION":"KAGRANER PLATZ","LINIE":"U1","BEMERKUNG":"Aufzug fährt vom U1-Mittelbahnsteig in das stadteinwärtige Aufnahmegebäude Ausgang Donaufelderstraße/Wagramerstraße.","ANLAGEN_ID":"KT A01","GRUPPEN_ID":null,"BETREIBER":"Wiener Linien","SE_ANNO_CAD_DATA":null}},{"type":"Feature","id":"AUFZUGOGD.1620","geometry":{"type":"Point","coordinates":[16.450077960553156,48.258202002964005]},"geometry_name":"SHAPE","properties":{"OBJECTID":1620,"STATION":"RENNBAHNWEG","LINIE":"U1","BEMERKUNG":"Aufzug fährt vom U1 Mittelbahnsteig in das stadtauswärtige Aufnahmegebäude Ausgang Wagramerstraße","ANLAGEN_ID":"RB A02","GRUPPEN_ID":null,"BETREIBER":"Wiener Linien","SE_ANNO_CAD_DATA":null}},{"type":"Feature","id":"AUFZUGOGD.1621","geometry":{"type":"Point","coordinates":[16.44926098340932,48.25705608125626]},"geometry_name":"SHAPE","properties":{"OBJECTID":1621,"STATION":"RENNBAHNWEG","LINIE":"U1","BEMERKUNG":"Aufzug fährt vom U1-Mittelbahnsteig in das stadteinwärtige Aufnahmegebäude Ausgang Rennbahnweg","ANLAGEN_ID":"RB A01","GRUPPEN_ID":null,"BETREIBER":"Wiener Linien","SE_ANNO_CAD_DATA":null}},{"type":"Feature","id":"AUFZUGOGD.1622","geometry":{"type":"Point","coordinates":[16.45169552999062,48.26413739158861]},"geometry_name":"SHAPE","properties":{"OBJECTID":1622,"STATION":"ADERKLAAER STRASSE","LINIE":"U1","BEMERKUNG":"Aufzug fährt vom U1-Mittelbahnsteig in das stadtauswärtige Aufnahmegebäude Ausgang Baldassgasse","ANLAGEN_ID":"AK A02","GRUPPEN_ID":null,"BETREIBER":"Wiener Linien","SE_ANNO_CAD_DATA":null}},{"type":"Feature","id":"AUFZUGOGD.1623","geometry":{"type":"Point","coordinates":[16.45156670896908,48.262847869478364]},"geometry_name":"SHAPE","properties":{"OBJECTID":1623,"STATION":"ADERKLAAER STRASSE","LINIE":"U1","BEMERKUNG":"Aufzug fährt vom U1-Mittelbahnsteig in das stadteinwärtige Aufnahmegebäude Ausgang Aderklaaer Straße","ANLAGEN_ID":"AK A01","GRUPPEN_ID":null,"BETREIBER":"Wiener Linien","SE_ANNO_CAD_DATA":null}},{"type":"Feature","id":"AUFZUGOGD.1624","geometry":{"type":"Point","coordinates":[16.44756674600681,48.271732802368696]},"geometry_name":"SHAPE","properties":{"OBJECTID":1624,"STATION":"GROSSFELDSIEDLUNG","LINIE":"U1","BEMERKUNG":"Aufzug fährt vom U1-Mittelbahnsteig in das stadtauswärtige Aufnahmegebäude Ausgang Gitlbauergasse/Kürschnergasse","ANLAGEN_ID":"GF A02","GRUPPEN_ID":null,"BETREIBER":"Wiener Linien","SE_ANNO_CAD_DATA":null}},{"type":"Feature","id":"AUFZUGOGD.1625","geometry":{"type":"Point","coordinates":[16.448180899997507,48.27039179322751]},"geometry_name":"SHAPE","properties":{"OBJECTID":1625,"STATION":"GROSSFELDSIEDLUNG","LINIE":"U1","BEMERKUNG":"Aufzug fährt vom U1-Mittelbahnsteig in das stadteinwärtige Aufnahmegebäude Ausgang Dopschstraße","ANLAGEN_ID":"GF A01","GRUPPEN_ID":null,"BETREIBER":"Wiener Linien","SE_ANNO_CAD_DATA":null}},{"type":"Feature","id":"AUFZUGOGD.1626","geometry":{"type":"Point","coordinates":[16.452669637457554,48.277525615984736]},"geometry_name":"SHAPE","properties":{"OBJECTID":1626,"STATION":"LEOPOLDAU","LINIE":"U1","BEMERKUNG":"Aufzug fährt vom Zwischengeschoss (Parkhaus) in das stadtauswärtige Aufnahmegebäude Ausgang Schererstraße","ANLAGEN_ID":"LU A04","GRUPPEN_ID":null,"BETREIBER":"Wiener Linien","SE_ANNO_CAD_DATA":null}},{"type":"Feature","id":"AUFZUGOGD.1627","geometry":{"type":"Point","coordinates":[16.451055330633263,48.27720601827523]},"geometry_name":"SHAPE","properties":{"OBJECTID":1627,"STATION":"LEOPOLDAU","LINIE":"U1","BEMERKUNG":"Aufzug fährt von der Passage in das Aufnahmegebäude Ausgang Schererstraße","ANLAGEN_ID":"LU A03","GRUPPEN_ID":null,"BETREIBER":"Wiener Linien","SE_ANNO_CAD_DATA":null}},{"type":"Feature","id":"AUFZUGOGD.1628","geometry":{"type":"Point","coordinates":[16.452574933461616,48.27768116776275]},"geometry_name":"SHAPE","properties":{"OBJECTID":1628,"STATION":"LEOPOLDAU","LINIE":"U1","BEMERKUNG":"Aufzug fährt vom Zwischengeschoss (Parkhaus) auf den U1-Mittelbahnsteig","ANLAGEN_ID":"LU A02","GRUPPEN_ID":null,"BETREIBER":"Wiener Linien","SE_ANNO_CAD_DATA":null}},{"type":"Feature","id":"AUFZUGOGD.1629","geometry":{"type":"Point","coordinates":[16.45133977159016,48.27741115705273]},"geometry_name":"SHAPE","properties":{"OBJECTID":1629,"STATION":"LEOPOLDAU","LINIE":"U1","BEMERKUNG":"Aufzug fährt von der Passage auf den U1-Mittelbahnsteig","ANLAGEN_ID":"LU A01","GRUPPEN_ID":null,"BETREIBER":"Wiener Linien","SE_ANNO_CAD_DATA":null}},{"type":"Feature","id":"AUFZUGOGD.1630","geometry":{"type":"Point","coordinates":[16.39290990499657,48.219705887004146]},"geometry_name":"SHAPE","properties":{"OBJECTID":1630,"STATION":"PRATERSTERN","LINIE":"U1","BEMERKUNG":"Aufzug fährt vom U1-Seitenbahnsteig (Fahrtrichtung 1 nach Leopoldau) in das Zwischengeschoß (Übergang zur U2) und in das Aufnahmegebäude Ausgang Lassallestraße","ANLAGEN_ID":"PR A02","GRUPPEN_ID":null,"BETREIBER":"Wiener Linien","SE_ANNO_CAD_DATA":null}},{"type":"Feature","id":"AUFZUGOGD.1631","geometry":{"type":"Point","coordinates":[16.39299289715043,48.219625737241536]},"geometry_name":"SHAPE","properties":{"OBJECTID":1631,"STATION":"PRATERSTERN","LINIE":"U1","BEMERKUNG":"Aufzug fährt vom U1-Seitenbahnsteig (Fahrtrichtung 2 nach Reumannplatz) in das Zwischengeschoß (Übergang zur U2) und in das Aufnahmegebäude Ausgang Lassallestraße","ANLAGEN_ID":"PR A01","GRUPPEN_ID":null,"BETREIBER":"Wiener Linien","SE_ANNO_CAD_DATA":null}},{"type":"Feature","id":"AUFZUGOGD.1632","geometry":{"type":"Point","coordinates":[16.40050895580431,48.22310290981805]},"geometry_name":"SHAPE","properties":{"OBJECTID":1632,"STATION":"VORGARTENSTRASSE","LINIE":"U1","BEMERKUNG":"Aufzug fährt vom U1-Seitenbahnsteig (Fahrtrichtung 1 nach Leopoldau) in das stadteinwärtige Aufnahmegebäude Ausgang Radingerstraße","ANLAGEN_ID":"VS A01","GRUPPEN_ID":null,"BETREIBER":"Wiener Linien","SE_ANNO_CAD_DATA":null}},{"type":"Feature","id":"AUFZUGOGD.1633","geometry":{"type":"Point","coordinates":[16.40013662207934,48.22339816919162]},"geometry_name":"SHAPE","properties":{"OBJECTID":1633,"STATION":"VORGARTENSTRASSE","LINIE":"U1","BEMERKUNG":"Aufzug fährt vom U1-Seitenbahnsteig (Fahrtrichtung 2 nach Reumannplatz) in das stadteinwärtige Aufnahmegebäude Ausgang Radingerstraße","ANLAGEN_ID":"VS A02","GRUPPEN_ID":null,"BETREIBER":"Wiener Linien","SE_ANNO_CAD_DATA":null}},{"type":"Feature","id":"AUFZUGOGD.1635","geometry":{"type":"Point","coordinates":[16.371567845083753,48.20805362160386]},"geometry_name":"SHAPE","properties":{"OBJECTID":1635,"STATION":"STEPHANSPLATZ","LINIE":"U1","BEMERKUNG":"Aufzug fährt vom U1-Bahnsteig (beide Fahrtrichtungen) auf den U3-Seitenbahnsteig (Fahrtrichtung 2 nach Ottakring) und auf den U3-Seitenbahnsteig (Fahrtrichtung nach Simmering) und in das Zwischengeschoß","ANLAGEN_ID":"SZ A01","GRUPPEN_ID":null,"BETREIBER":"Wiener Linien","SE_ANNO_CAD_DATA":null}},{"type":"Feature","id":"AUFZUGOGD.1636","geometry":{"type":"Point","coordinates":[16.43269450471011,48.24283477220358]},"geometry_name":"SHAPE","properties":{"OBJECTID":1636,"STATION":"KAGRAN","LINIE":"U1","BEMERKUNG":"Aufzug fährt vom Aufnahmegebäude Ausgang Anton-Sattler-Gasse auf den U1-Mittelbahnsteig","ANLAGEN_ID":"ZK A01","GRUPPEN_ID":null,"BETREIBER":"Wiener Linien","SE_ANNO_CAD_DATA":null}},{"type":"Feature","id":"AUFZUGOGD.1637","geometry":{"type":"Point","coordinates":[16.44296951752445,48.249916729843555]},"geometry_name":"SHAPE","properties":{"OBJECTID":1637,"STATION":"KAGRANER PLATZ","LINIE":"U1","BEMERKUNG":"Aufzug fährt vom U1-Mittelbahnsteig in das stadteinwärtige Aufnahmegebäude Ausgang Donaufelderstraße/Wagramerstraße.","ANLAGEN_ID":"KT A02","GRUPPEN_ID":null,"BETREIBER":"Wiener Linien","SE_ANNO_CAD_DATA":null}},{"type":"Feature","id":"AUFZUGOGD.1638","geometry":{"type":"Point","coordinates":[16.35671805856081,48.20585640220182]},"geometry_name":"SHAPE","properties":{"OBJECTID":1638,"STATION":"VOLKSTHEATER","LINIE":"U2","BEMERKUNG":"Aufzug fährt vom U2 Bahnsteig Fahrtrichtung Karlsplatz an die Oberfläche Ausgang Neustiftgasse.","ANLAGEN_ID":"VT A07","GRUPPEN_ID":null,"BETREIBER":"Wiener Linien","SE_ANNO_CAD_DATA":null}},{"type":"Feature","id":"AUFZUGOGD.1639","geometry":{"type":"Point","coordinates":[16.369401055670984,48.20210935616144]},"geometry_name":"SHAPE","properties":{"OBJECTID":1639,"STATION":"KARLSPLATZ","LINIE":"U1","BEMERKUNG":"Aufzug fährt vom U1 Bahnsteig in die Karlsplatzpassage.","ANLAGEN_ID":"KP A04","GRUPPEN_ID":null,"BETREIBER":"Wiener Linien","SE_ANNO_CAD_DATA":null}},{"type":"Feature","id":"AUFZUGOGD.1640","geometry":{"type":"Point","coordinates":[16.36625133400449,48.20067025626951]},"geometry_name":"SHAPE","properties":{"OBJECTID":1640,"STATION":"KARLSPLATZ","LINIE":"U1","BEMERKUNG":"Aufzug fährt von der Passage (Ostpassage) an die Oberfläche Ausgang Secession.","ANLAGEN_ID":"KP A07","GRUPPEN_ID":null,"BETREIBER":"Wiener Linien","SE_ANNO_CAD_DATA":null}},{"type":"Feature","id":"AUFZUGOGD.1641","geometry":{"type":"Point","coordinates":[16.37360089062511,48.186469534963365]},"geometry_name":"SHAPE","properties":{"OBJECTID":1641,"STATION":"SÜDTIROLER PLATZ - HAUPTBAHNHOF","LINIE":"U1","BEMERKUNG":"Aufzug fährt vom Bahnsteig ins Zwischengeschoß zum alten Südtirolerplatz und ins obere Zwischengeschoß Aufgang Favoritenstraße.","ANLAGEN_ID":"SL A01","GRUPPEN_ID":null,"BETREIBER":"Wiener Linien","SE_ANNO_CAD_DATA":null}},{"type":"Feature","id":"AUFZUGOGD.1642","geometry":{"type":"Point","coordinates":[16.357570720787272,48.2059000937212]},"geometry_name":"SHAPE","properties":{"OBJECTID":1642,"STATION":"VOLKSTHEATER","LINIE":"U2","BEMERKUNG":"Aufzug fährt vom U2 Bahnsteig Fahrtrichtung Seestadt an die Oberfläche Ausgang Volksgartenstraße.","ANLAGEN_ID":"VT A08","GRUPPEN_ID":null,"BETREIBER":"Wiener Linien","SE_ANNO_CAD_DATA":null}},{"type":"Feature","id":"AUFZUGOGD.1643","geometry":{"type":"Point","coordinates":[16.376966284932205,48.21162672301884]},"geometry_name":"SHAPE","properties":{"OBJECTID":1643,"STATION":"SCHWEDENPLATZ","LINIE":"U1","BEMERKUNG":"Aufzug fährt vom U1-Bahnsteig (beide Fahrtrichtungen) in das Zwischengeschoß (Übergang zur U4) und in das Aufnahmegebäude Ausgang Schwedenplatz","ANLAGEN_ID":"SP A01","GRUPPEN_ID":null,"BETREIBER":"Wiener Linien","SE_ANNO_CAD_DATA":null}},{"type":"Feature","id":"AUFZUGOGD.1644","geometry":{"type":"Point","coordinates":[16.377929347495307,48.211854645396414]},"geometry_name":"SHAPE","properties":{"OBJECTID":1644,"STATION":"SCHWEDENPLATZ","LINIE":"U1","BEMERKUNG":"Aufzug fährt vom Zwischengeschoß (Übergang zur U1) auf den U4-Mittelbahnsteig.","ANLAGEN_ID":"SP A02","GRUPPEN_ID":null,"BETREIBER":"Wiener Linien","SE_ANNO_CAD_DATA":null}},{"type":"Feature","id":"AUFZUGOGD.1645","geometry":{"type":"Point","coordinates":[16.377861925197045,48.211833096066314]},"geometry_name":"SHAPE","properties":{"OBJECTID":1645,"STATION":"SCHWEDENPLATZ","LINIE":"U1","BEMERKUNG":"Aufzug fährt vom U1-Bahnsteig (beide Fahrtrichungen) in das Zwischengeschoß (Übergang zur U4)","ANLAGEN_ID":"SP A03","GRUPPEN_ID":null,"BETREIBER":"Wiener Linien","SE_ANNO_CAD_DATA":null}},{"type":"Feature","id":"AUFZUGOGD.1646","geometry":{"type":"Point","coordinates":[16.37328120532799,48.18624549353953]},"geometry_name":"SHAPE","properties":{"OBJECTID":1646,"STATION":"SÜDTIROLER PLATZ - HAUPTBAHNHOF","LINIE":"U1","BEMERKUNG":"Aufzug fährt von der Zwischengeschoß (Passage) an die Oberfläche Aufgang Favoritenstraße.","ANLAGEN_ID":"SL A03","GRUPPEN_ID":null,"BETREIBER":"Wiener Linien","SE_ANNO_CAD_DATA":null}},{"type":"Feature","id":"AUFZUGOGD.1647","geometry":{"type":"Point","coordinates":[16.376135959186826,48.179316007565696]},"geometry_name":"SHAPE","properties":{"OBJECTID":1647,"STATION":"KEPLERPLATZ","LINIE":"U1","BEMERKUNG":"Aufzug fährt vom Bahnsteig der Linie U1 an die Oberfläche.","ANLAGEN_ID":"KE A01","GRUPPEN_ID":null,"BETREIBER":"Wiener Linien","SE_ANNO_CAD_DATA":null}},{"type":"Feature","id":"AUFZUGOGD.1648","geometry":{"type":"Point","coordinates":[16.3929827673478,48.21873083131581]},"geometry_name":"SHAPE","properties":{"OBJECTID":1648,"STATION":"PRATERSTERN","LINIE":"U1","BEMERKUNG":"Aufzug fährt vom U2-Mittelbahnsteig in das Zwischengeschoss (Übergang zur U1) und in die Passage","ANLAGEN_ID":"PR A03","GRUPPEN_ID":null,"BETREIBER":"Wiener Linien","SE_ANNO_CAD_DATA":null}},{"type":"Feature","id":"AUFZUGOGD.1649","geometry":{"type":"Point","coordinates":[16.39457275697892,48.21838961435852]},"geometry_name":"SHAPE","properties":{"OBJECTID":1649,"STATION":"PRATERSTERN","LINIE":"U1","BEMERKUNG":"Aufzug fährt vom U2-Mittelbahnsteig in das Aufnahmegebäude Ausgang Venediger Au/Ausstellungsstraße","ANLAGEN_ID":"PR A06","GRUPPEN_ID":null,"BETREIBER":"Wiener Linien","SE_ANNO_CAD_DATA":null}},{"type":"Feature","id":"AUFZUGOGD.1650","geometry":{"type":"Point","coordinates":[16.39043221515999,48.21871873898181]},"geometry_name":"SHAPE","properties":{"OBJECTID":1650,"STATION":"PRATERSTERN","LINIE":"U1","BEMERKUNG":"Aufzug fährt von der Passage in das stadteinwärtige Aufnahmegebäude Praterstraße","ANLAGEN_ID":"PR A07","GRUPPEN_ID":null,"BETREIBER":"Wiener Linien","SE_ANNO_CAD_DATA":null}},{"type":"Feature","id":"AUFZUGOGD.1651","geometry":{"type":"Point","coordinates":[16.385499448705566,48.21527757117787]},"geometry_name":"SHAPE","properties":{"OBJECTID":1651,"STATION":"NESTROYPLATZ","LINIE":"U1","BEMERKUNG":"Aufzug fährt vom U1-Mittelbahnsteig an die Oberfläche Ausgang Praterstraße","ANLAGEN_ID":"NP A01","GRUPPEN_ID":null,"BETREIBER":"Wiener Linien","SE_ANNO_CAD_DATA":null}},{"type":"Feature","id":"AUFZUGOGD.1652","geometry":{"type":"Point","coordinates":[16.377650950524675,48.17558605191448]},"geometry_name":"SHAPE","properties":{"OBJECTID":1652,"STATION":"REUMANNPLATZ","LINIE":"U1","BEMERKUNG":"Aufzug fährt vom Bahnsteig der Linie U1 an die Oberfläche Ausgang Favoritenstraße (Stadteinwärtige Seite)","ANLAGEN_ID":"RP A01","GRUPPEN_ID":null,"BETREIBER":"Wiener Linien","SE_ANNO_CAD_DATA":null}},{"type":"Feature","id":"AUFZUGOGD.1653","geometry":{"type":"Point","coordinates":[16.36107904116248,48.20253556231729]},"geometry_name":"SHAPE","properties":{"OBJECTID":1653,"STATION":"MUSEUMSQUARTIER","LINIE":"U2","BEMERKUNG":"Aufzug fährt vom Seitenbahnsteig (Fahrtrichtung 1 nach Karlsplatz) in das Zwischengeschoss und in das Aufnahmegebäude Ausgang Museumsquartier","ANLAGEN_ID":"BA A01","GRUPPEN_ID":null,"BETREIBER":"Wiener Linien","SE_ANNO_CAD_DATA":null}},{"type":"Feature","id":"AUFZUGOGD.1654","geometry":{"type":"Point","coordinates":[16.36134617380409,48.20289480150938]},"geometry_name":"SHAPE","properties":{"OBJECTID":1654,"STATION":"MUSEUMSQUARTIER","LINIE":"U2","BEMERKUNG":"Aufzug fährt vom Seitenbahnsteig (Fahrtrichtung 2 nach Aspernstraße) in das Zwischengeschoss und in das Aufnahmegebäude Ausgang Museumsquartier","ANLAGEN_ID":"BA A02","GRUPPEN_ID":null,"BETREIBER":"Wiener Linien","SE_ANNO_CAD_DATA":null}},{"type":"Feature","id":"AUFZUGOGD.1655","geometry":{"type":"Point","coordinates":[16.355649167816292,48.21042212809935]},"geometry_name":"SHAPE","properties":{"OBJECTID":1655,"STATION":"RATHAUS","LINIE":"U2","BEMERKUNG":"Aufzug fährt vom Seitenbahnsteig (Fahrtrichtung 2 nach Aspernstraße) in das Aufnahmegebäude Ausgang Friedrich-Schmidt-Platz","ANLAGEN_ID":"RH A02","GRUPPEN_ID":null,"BETREIBER":"Wiener Linien","SE_ANNO_CAD_DATA":null}},{"type":"Feature","id":"AUFZUGOGD.1656","geometry":{"type":"Point","coordinates":[16.355191523902995,48.21023422776665]},"geometry_name":"SHAPE","properties":{"OBJECTID":1656,"STATION":"RATHAUS","LINIE":"U2","BEMERKUNG":"Aufzug fährt vom Seitenbahnsteig (Fahrtrichtung 1 nach Karlsplatz) in das Aufnahmegebäude Ausgang Josefstädter Straße","ANLAGEN_ID":"RH A01","GRUPPEN_ID":null,"BETREIBER":"Wiener Linien","SE_ANNO_CAD_DATA":null}},{"type":"Feature","id":"AUFZUGOGD.1657","geometry":{"type":"Point","coordinates":[16.36253810444757,48.21487651514337]},"geometry_name":"SHAPE","properties":{"OBJECTID":1657,"STATION":"SCHOTTENTOR UNIVERSITÄT","LINIE":"U2","BEMERKUNG":"Aufzug fährt vom U2-Mittelbahnsteig in die Passage","ANLAGEN_ID":"SO A01","GRUPPEN_ID":null,"BETREIBER":"Wiener Linien","SE_ANNO_CAD_DATA":null}},{"type":"Feature","id":"AUFZUGOGD.1658","geometry":{"type":"Point","coordinates":[16.43215512659471,48.20663223582698]},"geometry_name":"SHAPE","properties":{"OBJECTID":1658,"STATION":"DONAUMARINA","LINIE":"U2","BEMERKUNG":"Aufzug fährt vom stadtauswärtigen Aufnahmegebäude Ausgang Donaumarina auf den U2-Seitenbahnsteig (Fahrtrichtung 2 nach Aspernstraße)","ANLAGEN_ID":"DM A06","GRUPPEN_ID":null,"BETREIBER":"Wiener Linien","SE_ANNO_CAD_DATA":null}},{"type":"Feature","id":"AUFZUGOGD.1659","geometry":{"type":"Point","coordinates":[16.415631278536654,48.17456087946706]},"geometry_name":"SHAPE","properties":{"OBJECTID":1659,"STATION":"ENKPLATZ","LINIE":"U3","BEMERKUNG":"Aufzug fährt vom Bahnsteig an die Oberfläche Ausgang Simmeringer Hauptstraße.","ANLAGEN_ID":"EK A01","GRUPPEN_ID":null,"BETREIBER":"Wiener Linien","SE_ANNO_CAD_DATA":null}},{"type":"Feature","id":"AUFZUGOGD.1660","geometry":{"type":"Point","coordinates":[16.36938581904414,48.202111527038696]},"geometry_name":"SHAPE","properties":{"OBJECTID":1660,"STATION":"KARLSPLATZ","LINIE":"U1","BEMERKUNG":"Aufzug fährt vom U1 Bahnsteig in die Karlsplatzpassage.","ANLAGEN_ID":"KP A03","GRUPPEN_ID":null,"BETREIBER":"Wiener Linien","SE_ANNO_CAD_DATA":null}},{"type":"Feature","id":"AUFZUGOGD.1661","geometry":{"type":"Point","coordinates":[16.36871466687745,48.20114309614136]},"geometry_name":"SHAPE","properties":{"OBJECTID":1661,"STATION":"KARLSPLATZ","LINIE":"U2","BEMERKUNG":"Aufzug fährt vom Bahnsteig der Linie U3 Richtung Aspernstraße in das Zwischengeschoß und in die Passage.","ANLAGEN_ID":"KP A02","GRUPPEN_ID":null,"BETREIBER":"Wiener Linien","SE_ANNO_CAD_DATA":null}},{"type":"Feature","id":"AUFZUGOGD.1662","geometry":{"type":"Point","coordinates":[16.368636952067668,48.20101462824892]},"geometry_name":"SHAPE","properties":{"OBJECTID":1662,"STATION":"KARLSPLATZ","LINIE":"U2","BEMERKUNG":"Aufzug fährt von U2 Bahnsteig Endstation in das Zwischengeschoß und in die Passage","ANLAGEN_ID":"KP A06","GRUPPEN_ID":null,"BETREIBER":"Wiener Linien","SE_ANNO_CAD_DATA":null}},{"type":"Feature","id":"AUFZUGOGD.1663","geometry":{"type":"Point","coordinates":[16.370404442966077,48.19373820394858]},"geometry_name":"SHAPE","properties":{"OBJECTID":1663,"STATION":"TAUBSTUMMENGASSE","LINIE":"U1","BEMERKUNG":"Aufzug fährt vom Bahnsteig der Linie U1 an die Oberfläche Favoritenstraße.","ANLAGEN_ID":"TA A01","GRUPPEN_ID":null,"BETREIBER":"Wiener Linien","SE_ANNO_CAD_DATA":null}},{"type":"Feature","id":"AUFZUGOGD.1664","geometry":{"type":"Point","coordinates":[16.431956061547407,48.20678119749625]},"geometry_name":"SHAPE","properties":{"OBJECTID":1664,"STATION":"DONAUMARINA","LINIE":"U2","BEMERKUNG":"Aufzug fährt vom stadtauswärtigen Aufnahmegebäude Ausgang Donaumarina auf den U2-Seitenbahnsteig (Fahrtrichtung 1 nach Karlsplatz)","ANLAGEN_ID":"DM A05","GRUPPEN_ID":null,"BETREIBER":"Wiener Linien","SE_ANNO_CAD_DATA":null}},{"type":"Feature","id":"AUFZUGOGD.1634","geometry":{"type":"Point","coordinates":[16.371855530346593,48.20830026066571]},"geometry_name":"SHAPE","properties":{"OBJECTID":1634,"STATION":"STEPHANSPLATZ","LINIE":"U1","BEMERKUNG":"Aufzug fährt vom Zwischengeschoß an die Oberfläche Ausgang Stephansplatz","ANLAGEN_ID":"SZ A04","GRUPPEN_ID":null,"BETREIBER":"Wiener Linien","SE_ANNO_CAD_DATA":null}},{"type":"Feature","id":"AUFZUGOGD.1665","geometry":{"type":"Point","coordinates":[16.431070055017887,48.20607951681419]},"geometry_name":"SHAPE","properties":{"OBJECTID":1665,"STATION":"DONAUMARINA","LINIE":"U2","BEMERKUNG":"Aufzug fährt vom stadteinwärtigen Aufnahmegebäude Ausgang Wehlistraße auf den U2-Seitenbahnsteig (Fahrtrichtung 2 nach Aspernstraße)","ANLAGEN_ID":"DM A04","GRUPPEN_ID":null,"BETREIBER":"Wiener Linien","SE_ANNO_CAD_DATA":null}},{"type":"Feature","id":"AUFZUGOGD.1666","geometry":{"type":"Point","coordinates":[16.430932653004326,48.20620843834832]},"geometry_name":"SHAPE","properties":{"OBJECTID":1666,"STATION":"DONAUMARINA","LINIE":"U2","BEMERKUNG":"Aufzug fährt vom stadteinwärtigen Aufnahmegebäude Ausgang Wehlistraße auf den U2-Seitenbahnsteig (Fahrtrichtung 1 nach Karlsplatz)","ANLAGEN_ID":"DM A01","GRUPPEN_ID":null,"BETREIBER":"Wiener Linien","SE_ANNO_CAD_DATA":null}},{"type":"Feature","id":"AUFZUGOGD.1667","geometry":{"type":"Point","coordinates":[16.45774558492988,48.22090203828524]},"geometry_name":"SHAPE","properties":{"OBJECTID":1667,"STATION":"HARDEGGASSE","LINIE":"U2","BEMERKUNG":"Aufzug fährt vom Aufnahmgebäude Ausgang Hardeggasse auf den Mittelbahnsteig","ANLAGEN_ID":"AR A01","GRUPPEN_ID":null,"BETREIBER":"Wiener Linien","SE_ANNO_CAD_DATA":null}},{"type":"Feature","id":"AUFZUGOGD.1668","geometry":{"type":"Point","coordinates":[16.440749336646483,48.21205243138802]},"geometry_name":"SHAPE","properties":{"OBJECTID":1668,"STATION":"DONAUSTADTBRÜCKE","LINIE":"U2","BEMERKUNG":"Aufzug fährt vom stadtauswärtigen Aufnahmegebäude Ausgang Effenbergplatz auf den U2-Seitenbahnsteig (Fahrtrichtung 2 nach Aspernstraße)","ANLAGEN_ID":"DT A04","GRUPPEN_ID":null,"BETREIBER":"Wiener Linien","SE_ANNO_CAD_DATA":null}},{"type":"Feature","id":"AUFZUGOGD.1669","geometry":{"type":"Point","coordinates":[16.44055018778746,48.21215889424832]},"geometry_name":"SHAPE","properties":{"OBJECTID":1669,"STATION":"DONAUSTADTBRÜCKE","LINIE":"U2","BEMERKUNG":"Aufzug fährt vom stadtauswärtigen Aufnahmegebäude Ausgang Effenbergplatz auf den U2-Seitenbahnsteig (Fahrtrichtung 1 nach Karlsplatz)","ANLAGEN_ID":"DT A03","GRUPPEN_ID":null,"BETREIBER":"Wiener Linien","SE_ANNO_CAD_DATA":null}},{"type":"Feature","id":"AUFZUGOGD.1670","geometry":{"type":"Point","coordinates":[16.439667368323175,48.211375742357866]},"geometry_name":"SHAPE","properties":{"OBJECTID":1670,"STATION":"DONAUSTADTBRÜCKE","LINIE":"U2","BEMERKUNG":"Aufzug fährt vom stadteinwärtigen Aufnahmegebäude Ausgang Neue Donau auf den U2-Seitenbahnsteig (Fahrtrichtung 2 nach Aspernstraße)","ANLAGEN_ID":"DT A02","GRUPPEN_ID":null,"BETREIBER":"Wiener Linien","SE_ANNO_CAD_DATA":null}},{"type":"Feature","id":"AUFZUGOGD.1671","geometry":{"type":"Point","coordinates":[16.43949913957321,48.211514695030296]},"geometry_name":"SHAPE","properties":{"OBJECTID":1671,"STATION":"DONAUSTADTBRÜCKE","LINIE":"U2","BEMERKUNG":"Aufzug fährt vom stadteinwärtigen Aufnahmegebäude Ausgang Neue Donau auf den U2-Seitenbahnsteig (Fahrtrichtung 1 nach Karlsplatz)","ANLAGEN_ID":"DT A01","GRUPPEN_ID":null,"BETREIBER":"Wiener Linien","SE_ANNO_CAD_DATA":null}},{"type":"Feature","id":"AUFZUGOGD.1672","geometry":{"type":"Point","coordinates":[16.44079119755484,48.212270826790984]},"geometry_name":"SHAPE","properties":{"OBJECTID":1672,"STATION":"DONAUSTADTBRÜCKE","LINIE":"U2","BEMERKUNG":"Aufzug fährt vom Effenbergplatz zur Passage zur Parkgarage","ANLAGEN_ID":"DT A05","GRUPPEN_ID":null,"BETREIBER":"Wiener Linien","SE_ANNO_CAD_DATA":null}},{"type":"Feature","id":"AUFZUGOGD.1673","geometry":{"type":"Point","coordinates":[16.45036579455514,48.22014182268999]},"geometry_name":"SHAPE","properties":{"OBJECTID":1673,"STATION":"STADLAU","LINIE":"U2","BEMERKUNG":"Aufzug fährt vom stadtauswärtigen Aufnahmegebäude Ausgang Konstanziagasse auf den U2-Mittelbahnsteig","ANLAGEN_ID":"SD A04","GRUPPEN_ID":null,"BETREIBER":"Wiener Linien","SE_ANNO_CAD_DATA":null}},{"type":"Feature","id":"AUFZUGOGD.1674","geometry":{"type":"Point","coordinates":[16.448554999319825,48.219342684579345]},"geometry_name":"SHAPE","properties":{"OBJECTID":1674,"STATION":"STADLAU","LINIE":"U2","BEMERKUNG":"Aufzug fährt vom stadteinwärtigen Aufnahmegebäude Ausgang Kaisermühlenstraße auf den ÖBB-Mittelbahnsteig und auf den U2-Mittelbahnsteig","ANLAGEN_ID":"SD A01","GRUPPEN_ID":null,"BETREIBER":"Wiener Linien","SE_ANNO_CAD_DATA":null}},{"type":"Feature","id":"AUFZUGOGD.1675","geometry":{"type":"Point","coordinates":[16.467634818657537,48.2192653379189]},"geometry_name":"SHAPE","properties":{"OBJECTID":1675,"STATION":"DONAUSPITAL","LINIE":"U2","BEMERKUNG":"Aufzug fährt vom stadtauswärtigen Aufnahmegebäude Ausgang Kapellenweg auf den Mittelbahnsteig","ANLAGEN_ID":"DP A02","GRUPPEN_ID":null,"BETREIBER":"Wiener Linien","SE_ANNO_CAD_DATA":null}},{"type":"Feature","id":"AUFZUGOGD.1676","geometry":{"type":"Point","coordinates":[16.465361391920037,48.21959818306165]},"geometry_name":"SHAPE","properties":{"OBJECTID":1676,"STATION":"DONAUSPITAL","LINIE":"U2","BEMERKUNG":"Aufzug fährt vom stadteinwärtigen Aufnahmegebäude Ausgang Zschokkegasse auf den Mittelbahnsteig","ANLAGEN_ID":"DP A01","GRUPPEN_ID":null,"BETREIBER":"Wiener Linien","SE_ANNO_CAD_DATA":null}},{"type":"Feature","id":"AUFZUGOGD.1677","geometry":{"type":"Point","coordinates":[16.474445913719638,48.22197198099604]},"geometry_name":"SHAPE","properties":{"OBJECTID":1677,"STATION":"ASPERNSTRASSE","LINIE":"U2","BEMERKUNG":"Aufzug fährt vom stadteinwärtigen Aufnahmegebäude Ausgang Erzherzog-Karl Straße auf den Mittelbahnsteig","ANLAGEN_ID":"AP A02","GRUPPEN_ID":null,"BETREIBER":"Wiener Linien","SE_ANNO_CAD_DATA":null}},{"type":"Feature","id":"AUFZUGOGD.1678","geometry":{"type":"Point","coordinates":[16.474821837388,48.22246470895894]},"geometry_name":"SHAPE","properties":{"OBJECTID":1678,"STATION":"ASPERNSTRASSE","LINIE":"U2","BEMERKUNG":"Aufzug fährt vom stadtauswärtigen Aufnahmegebäude Ausgang Aspernstraße auf den Mittelbahnsteig","ANLAGEN_ID":"AP A01","GRUPPEN_ID":null,"BETREIBER":"Wiener Linien","SE_ANNO_CAD_DATA":null}},{"type":"Feature","id":"AUFZUGOGD.1679","geometry":{"type":"Point","coordinates":[16.3822553787953,48.21946107382172]},"geometry_name":"SHAPE","properties":{"OBJECTID":1679,"STATION":"TABORSTRASSE","LINIE":"U2","BEMERKUNG":"Aufzug fährt vom U2-Bahnsteig in das stadtauswärtige Aufnahmegebäude Ausgang Novaragasse","ANLAGEN_ID":"TB A02","GRUPPEN_ID":null,"BETREIBER":"Wiener Linien","SE_ANNO_CAD_DATA":null}},{"type":"Feature","id":"AUFZUGOGD.1680","geometry":{"type":"Point","coordinates":[16.38047359540028,48.21911675419233]},"geometry_name":"SHAPE","properties":{"OBJECTID":1680,"STATION":"TABORSTRASSE","LINIE":"U2","BEMERKUNG":"Aufzug fährt vom U2-Bahnsteig in das Zwischengeschoß und in das stadteinwärtige Aufnahmegebäude Ausgang Taborstraße/Obere Augartenstraße","ANLAGEN_ID":"TB A01","GRUPPEN_ID":null,"BETREIBER":"Wiener Linien","SE_ANNO_CAD_DATA":null}},{"type":"Feature","id":"AUFZUGOGD.1681","geometry":{"type":"Point","coordinates":[16.40603078385279,48.2177945663102]},"geometry_name":"SHAPE","properties":{"OBJECTID":1681,"STATION":"MESSE PRATER","LINIE":"U2","BEMERKUNG":"Aufzug fährt vom stadtauswärtigen Aufnahmegebäude Ausgang Messe auf den U2-Mittelbahnsteig","ANLAGEN_ID":"MS A02","GRUPPEN_ID":null,"BETREIBER":"Wiener Linien","SE_ANNO_CAD_DATA":null}},{"type":"Feature","id":"AUFZUGOGD.1682","geometry":{"type":"Point","coordinates":[16.403806657191147,48.2177855862784]},"geometry_name":"SHAPE","properties":{"OBJECTID":1682,"STATION":"MESSE PRATER","LINIE":"U2","BEMERKUNG":"Aufzug fährt vom stadteinwärtigen Aufnahmegebäude Prater auf den U2-Mittelbahnsteig","ANLAGEN_ID":"MS A01","GRUPPEN_ID":null,"BETREIBER":"Wiener Linien","SE_ANNO_CAD_DATA":null}},{"type":"Feature","id":"AUFZUGOGD.1683","geometry":{"type":"Point","coordinates":[16.41297917997415,48.215095006128166]},"geometry_name":"SHAPE","properties":{"OBJECTID":1683,"STATION":"KRIEAU","LINIE":"U2","BEMERKUNG":"Aufzug fährt vom stadteinwärtigen Aufnahmegebäude Ausgang Sturgasse auf den U2-Mittelbahnsteig","ANLAGEN_ID":"KI A01","GRUPPEN_ID":null,"BETREIBER":"Wiener Linien","SE_ANNO_CAD_DATA":null}},{"type":"Feature","id":"AUFZUGOGD.1684","geometry":{"type":"Point","coordinates":[16.414614425979533,48.21424205740023]},"geometry_name":"SHAPE","properties":{"OBJECTID":1684,"STATION":"KRIEAU","LINIE":"U2","BEMERKUNG":"Aufzug fährt vom stadtauswärtigen Aufnahmegebäude Ausgang Krieau auf den U2-Mittelbahnsteig","ANLAGEN_ID":"KI A02","GRUPPEN_ID":null,"BETREIBER":"Wiener Linien","SE_ANNO_CAD_DATA":null}},{"type":"Feature","id":"AUFZUGOGD.1685","geometry":{"type":"Point","coordinates":[16.371221911059802,48.21720528609735]},"geometry_name":"SHAPE","properties":{"OBJECTID":1685,"STATION":"SCHOTTENRING","LINIE":"U2","BEMERKUNG":"Aufzug fährt vom U2-Bahnsteig auf den U4-Mittelbahnsteig und in das Aufnahmegebäude Ausgang Schottenring","ANLAGEN_ID":"SR A01","GRUPPEN_ID":null,"BETREIBER":"Wiener Linien","SE_ANNO_CAD_DATA":null}},{"type":"Feature","id":"AUFZUGOGD.1686","geometry":{"type":"Point","coordinates":[16.373267353464776,48.21764658682395]},"geometry_name":"SHAPE","properties":{"OBJECTID":1686,"STATION":"SCHOTTENRING","LINIE":"U2","BEMERKUNG":"Aufzug fährt vom U2-Bahnsteig in das Zwischengeschoß Ausgang Donaukai und in das stadtauswärtige Aufnahmegebäude Ausgang Herminengasse","ANLAGEN_ID":"SR A04","GRUPPEN_ID":null,"BETREIBER":"Wiener Linien","SE_ANNO_CAD_DATA":null}},{"type":"Feature","id":"AUFZUGOGD.1687","geometry":{"type":"Point","coordinates":[16.419483394962935,48.21131126943514]},"geometry_name":"SHAPE","properties":{"OBJECTID":1687,"STATION":"STADION","LINIE":"U2","BEMERKUNG":"Aufzug fährt vom stadteinwärtigen Aufnahmegebäude Ausgang Stella-Klein-Löw-Weg auf den U2-Bahnsteig (Fahrtrichtung 1 nach Karlsplatz)","ANLAGEN_ID":"SW A01","GRUPPEN_ID":null,"BETREIBER":"Wiener Linien","SE_ANNO_CAD_DATA":null}},{"type":"Feature","id":"AUFZUGOGD.1688","geometry":{"type":"Point","coordinates":[16.419333728468956,48.21122175145432]},"geometry_name":"SHAPE","properties":{"OBJECTID":1688,"STATION":"STADION","LINIE":"U2","BEMERKUNG":"Aufzug fährt vom stadteinwärtigen Aufnahmegebäude Ausgang Stella-Klein-Löw-Weg auf den U2-Bahnsteig (Fahrtrichtung 2 nach Aspernstraße)","ANLAGEN_ID":"SW A02","GRUPPEN_ID":null,"BETREIBER":"Wiener Linien","SE_ANNO_CAD_DATA":null}},{"type":"Feature","id":"AUFZUGOGD.1689","geometry":{"type":"Point","coordinates":[16.420965016401723,48.21026639792707]},"geometry_name":"SHAPE","properties":{"OBJECTID":1689,"STATION":"STADION","LINIE":"U2","BEMERKUNG":"Aufzug fährt vom stadtauswärtigen Aufnahmegebäude Ausgang Stadion auf den U2-Bahnsteig (Fahrtrichtung 1 nach Karlsplatz)","ANLAGEN_ID":"SW A03","GRUPPEN_ID":null,"BETREIBER":"Wiener Linien","SE_ANNO_CAD_DATA":null}},{"type":"Feature","id":"AUFZUGOGD.1690","geometry":{"type":"Point","coordinates":[16.42081891839881,48.210181638441]},"geometry_name":"SHAPE","properties":{"OBJECTID":1690,"STATION":"STADION","LINIE":"U2","BEMERKUNG":"Aufzug fährt vom stadtauswärtigen Aufnahmegebäude Ausgang Stadion auf den U2-Bahnsteig (Fahrtrichtung 2 nach Aspernstraße)","ANLAGEN_ID":"SW A04","GRUPPEN_ID":null,"BETREIBER":"Wiener Linien","SE_ANNO_CAD_DATA":null}},{"type":"Feature","id":"AUFZUGOGD.1691","geometry":{"type":"Point","coordinates":[16.41345784532729,48.191868964268096]},"geometry_name":"SHAPE","properties":{"OBJECTID":1691,"STATION":"ERDBERG","LINIE":"U3","BEMERKUNG":"Aufzug fährt vom Mittelbahnsteig in das stadteinwärtige Aufnahmegebäude Ausgang Nottendorfer Straße","ANLAGEN_ID":"ED A03","GRUPPEN_ID":null,"BETREIBER":"Wiener Linien","SE_ANNO_CAD_DATA":null}},{"type":"Feature","id":"AUFZUGOGD.1692","geometry":{"type":"Point","coordinates":[16.414784592566466,48.19098338051992]},"geometry_name":"SHAPE","properties":{"OBJECTID":1692,"STATION":"ERDBERG","LINIE":"U3","BEMERKUNG":"Aufzug fährt vom Mittelbahnsteig in das stadtauswärtige Aufnahmegbeäude Ausgang Franzosengraben","ANLAGEN_ID":"ED A02","GRUPPEN_ID":null,"BETREIBER":"Wiener Linien","SE_ANNO_CAD_DATA":null}},{"type":"Feature","id":"AUFZUGOGD.1693","geometry":{"type":"Point","coordinates":[16.414766296423988,48.19088742159273]},"geometry_name":"SHAPE","properties":{"OBJECTID":1693,"STATION":"ERDBERG","LINIE":"U3","BEMERKUNG":"Aufzug fährt vom stadtauswärtigen Aufnahmegebäude Ausgang Erdbergstraße in das Zwischengeschoss","ANLAGEN_ID":"ED A01","GRUPPEN_ID":null,"BETREIBER":"Wiener Linien","SE_ANNO_CAD_DATA":null}},{"type":"Feature","id":"AUFZUGOGD.1694","geometry":{"type":"Point","coordinates":[16.34489658213726,48.196925902875456]},"geometry_name":"SHAPE","properties":{"OBJECTID":1694,"STATION":"ZIEGLERGASSE","LINIE":"U3","BEMERKUNG":"Aufzug fährt vom Zwischengeschoß (West) an die Oberfläche Ausgang Schottenfeldgasse.","ANLAGEN_ID":"GZ A01","GRUPPEN_ID":null,"BETREIBER":"Wiener Linien","SE_ANNO_CAD_DATA":null}},{"type":"Feature","id":"AUFZUGOGD.1704","geometry":{"type":"Point","coordinates":[16.31163252784257,48.21159916262628]},"geometry_name":"SHAPE","properties":{"OBJECTID":1704,"STATION":"OTTAKRING","LINIE":"U3","BEMERKUNG":"Aufzug fährt vom Gleis 2 Endstation an die Oberfläche Ausgang Thaliastraße.","ANLAGEN_ID":"OK A02","GRUPPEN_ID":null,"BETREIBER":"Wiener Linien","SE_ANNO_CAD_DATA":null}},{"type":"Feature","id":"AUFZUGOGD.1705","geometry":{"type":"Point","coordinates":[16.30940008664675,48.20531055920216]},"geometry_name":"SHAPE","properties":{"OBJECTID":1705,"STATION":"KENDLERSTRASSE","LINIE":"U3","BEMERKUNG":"Aufzug fährt vom U3 Bahnsteig an die Oberfläche Ausgang Opfermanngasse.","ANLAGEN_ID":"KR A01","GRUPPEN_ID":null,"BETREIBER":"Wiener Linien","SE_ANNO_CAD_DATA":null}},{"type":"Feature","id":"AUFZUGOGD.1706","geometry":{"type":"Point","coordinates":[16.30892616408617,48.20400333302918]},"geometry_name":"SHAPE","properties":{"OBJECTID":1706,"STATION":"KENDLERSTRASSE","LINIE":"U3","BEMERKUNG":"Aufzug fährt vom U3 Bahnsteig an die Oberfläche Ausgang Steinbruchstraße.","ANLAGEN_ID":"KR A02","GRUPPEN_ID":null,"BETREIBER":"Wiener Linien","SE_ANNO_CAD_DATA":null}},{"type":"Feature","id":"AUFZUGOGD.1707","geometry":{"type":"Point","coordinates":[16.4127465781998,48.181362815514746]},"geometry_name":"SHAPE","properties":{"OBJECTID":1707,"STATION":"ZIPPERERSTRASSE","LINIE":"U3","BEMERKUNG":"Aufzug fährt vom Bahnsteig zu Oberfläche Ausgang Eisteichstraße und zu Oberfläche Augang Hyblerpark.","ANLAGEN_ID":"PP A02","GRUPPEN_ID":null,"BETREIBER":"Wiener Linien","SE_ANNO_CAD_DATA":null}},{"type":"Feature","id":"AUFZUGOGD.1708","geometry":{"type":"Point","coordinates":[16.41132551839318,48.17957122180188]},"geometry_name":"SHAPE","properties":{"OBJECTID":1708,"STATION":"ZIPPERERSTRASSE","LINIE":"U3","BEMERKUNG":"Aufzug fährt vom Bahnsteig an die Oberfläche Ausgang Zippererstraße / Simmeringer Hauptstraße.","ANLAGEN_ID":"PP A01","GRUPPEN_ID":null,"BETREIBER":"Wiener Linien","SE_ANNO_CAD_DATA":null}},{"type":"Feature","id":"AUFZUGOGD.1709","geometry":{"type":"Point","coordinates":[16.32951077499921,48.19765362345946]},"geometry_name":"SHAPE","properties":{"OBJECTID":1709,"STATION":"SCHWEGLERSTRASSE","LINIE":"U3","BEMERKUNG":"Aufzug fährt vom U3 Bahnsteig zur Oberfläche Ausgang Benedikt Schellingergasse.","ANLAGEN_ID":"SH A01","GRUPPEN_ID":null,"BETREIBER":"Wiener Linien","SE_ANNO_CAD_DATA":null}},{"type":"Feature","id":"AUFZUGOGD.1710","geometry":{"type":"Point","coordinates":[16.414398569068,48.17495024555412]},"geometry_name":"SHAPE","properties":{"OBJECTID":1710,"STATION":"ENKPLATZ","LINIE":"U3","BEMERKUNG":"Aufzug fährt vom Bahnsteig an die Oberfläche Ausgang Gottschalkgasse.","ANLAGEN_ID":"EK A03","GRUPPEN_ID":null,"BETREIBER":"Wiener Linien","SE_ANNO_CAD_DATA":null}},{"type":"Feature","id":"AUFZUGOGD.1711","geometry":{"type":"Point","coordinates":[16.311855419032323,48.199477467643064]},"geometry_name":"SHAPE","properties":{"OBJECTID":1711,"STATION":"HÜTTELDORFER STR.","LINIE":"U3","BEMERKUNG":"Aufzug fährt vom Bahnsteig an die Oberfläche Ausgang Hütteldorferstr./Breitenseerstraße.","ANLAGEN_ID":"HH A04","GRUPPEN_ID":null,"BETREIBER":"Wiener Linien","SE_ANNO_CAD_DATA":null}},{"type":"Feature","id":"AUFZUGOGD.1712","geometry":{"type":"Point","coordinates":[16.31088934439396,48.20017364790778]},"geometry_name":"SHAPE","properties":{"OBJECTID":1712,"STATION":"HÜTTELDORFER STR.","LINIE":"U3","BEMERKUNG":"Aufzug fährt vom Bahnsteig an die Oberfläche Ausgang Feilplatz.","ANLAGEN_ID":"HH A01","GRUPPEN_ID":null,"BETREIBER":"Wiener Linien","SE_ANNO_CAD_DATA":null}},{"type":"Feature","id":"AUFZUGOGD.1713","geometry":{"type":"Point","coordinates":[16.35108628448655,48.198774103755795]},"geometry_name":"SHAPE","properties":{"OBJECTID":1713,"STATION":"NEUBAUGASSE","LINIE":"U3","BEMERKUNG":"Aufzug fährt vom Zwischengeschoß an die Oberfläche Ausgang Neubaugasse.(West)","ANLAGEN_ID":"MA A01","GRUPPEN_ID":null,"BETREIBER":"Wiener Linien","SE_ANNO_CAD_DATA":null}},{"type":"Feature","id":"AUFZUGOGD.1714","geometry":{"type":"Point","coordinates":[16.35130340156852,48.198800249219104]},"geometry_name":"SHAPE","properties":{"OBJECTID":1714,"STATION":"NEUBAUGASSE","LINIE":"U3","BEMERKUNG":"Aufzug fährt vom Gleis 2 Richtung Ottakring zu Gleis 1 Richtung Erdberg  und ins Zwischengeschoß Ausgang Stiftgasse/Kirchengasse.(Ost)","ANLAGEN_ID":"MA A04","GRUPPEN_ID":null,"BETREIBER":"Wiener Linien","SE_ANNO_CAD_DATA":null}},{"type":"Feature","id":"AUFZUGOGD.1715","geometry":{"type":"Point","coordinates":[16.3531365958631,48.19947813830029]},"geometry_name":"SHAPE","properties":{"OBJECTID":1715,"STATION":"NEUBAUGASSE","LINIE":"U3","BEMERKUNG":"Aufzug fährt vom Gleis 2 Richtung Ottakring zu Gleis 1 Richtung Erdberg und in das Zwischengeschoß Ausgang Neubaugasse/Amerlingstr. (West)","ANLAGEN_ID":"MA A02","GRUPPEN_ID":null,"BETREIBER":"Wiener Linien","SE_ANNO_CAD_DATA":null}},{"type":"Feature","id":"AUFZUGOGD.1716","geometry":{"type":"Point","coordinates":[16.35479068810974,48.20015126895836]},"geometry_name":"SHAPE","properties":{"OBJECTID":1716,"STATION":"NEUBAUGASSE","LINIE":"U3","BEMERKUNG":"Aufzug fährt vom Zwischengeschoß an die Oberfläche Ausgang Kirchengasse.(Ost)","ANLAGEN_ID":"MA A03","GRUPPEN_ID":null,"BETREIBER":"Wiener Linien","SE_ANNO_CAD_DATA":null}},{"type":"Feature","id":"AUFZUGOGD.1717","geometry":{"type":"Point","coordinates":[16.336986014098006,48.19588640947909]},"geometry_name":"SHAPE","properties":{"OBJECTID":1717,"STATION":"WESTBAHNHOF","LINIE":"U3","BEMERKUNG":"Aufzug fährt vom U3 Bahnsteig an die Oberfläche Ausgang Gerstnergasse (Äusere Mariahilferstraße).","ANLAGEN_ID":"WS A11","GRUPPEN_ID":null,"BETREIBER":"Wiener Linien","SE_ANNO_CAD_DATA":null}},{"type":"Feature","id":"AUFZUGOGD.1718","geometry":{"type":"Point","coordinates":[16.338499750496627,48.195689686337374]},"geometry_name":"SHAPE","properties":{"OBJECTID":1718,"STATION":"WESTBAHNHOF","LINIE":"U3","BEMERKUNG":"Aufzug fährt vom Zwischengeschoß (Stationsw.) an die Oberfläche Äußere Mariahilferstraße. (Niedermeyer)","ANLAGEN_ID":"WS A10","GRUPPEN_ID":null,"BETREIBER":"Wiener Linien","SE_ANNO_CAD_DATA":null}},{"type":"Feature","id":"AUFZUGOGD.1719","geometry":{"type":"Point","coordinates":[16.33911197549412,48.19714272942584]},"geometry_name":"SHAPE","properties":{"OBJECTID":1719,"STATION":"WESTBAHNHOF","LINIE":"U3","BEMERKUNG":"Aufzug fährt vom U6 Bahnsteig an die Oberfläche Westbahnhof.","ANLAGEN_ID":"WS A01","GRUPPEN_ID":null,"BETREIBER":"Wiener Linien","SE_ANNO_CAD_DATA":null}},{"type":"Feature","id":"AUFZUGOGD.1720","geometry":{"type":"Point","coordinates":[16.340241298522567,48.19612111311532]},"geometry_name":"SHAPE","properties":{"OBJECTID":1720,"STATION":"WESTBAHNHOF","LINIE":"U3","BEMERKUNG":"Aufzug fährt vom Zwischengeschoß (Stationswart) zu Zwischengeschoß (Toilette) und an die Oberfläche (Innere Mariahilferstraße)","ANLAGEN_ID":"WS A06","GRUPPEN_ID":null,"BETREIBER":"Wiener Linien","SE_ANNO_CAD_DATA":null}},{"type":"Feature","id":"AUFZUGOGD.1721","geometry":{"type":"Point","coordinates":[16.357671574497168,48.20473153754552]},"geometry_name":"SHAPE","properties":{"OBJECTID":1721,"STATION":"VOLKSTHEATER","LINIE":"U3","BEMERKUNG":"Aufzug fährt vom Bahnsteig der Linie U2 (Richtung Karlsplatz) an die Oberfläche Ausgang Burggasse.","ANLAGEN_ID":"VT A01","GRUPPEN_ID":null,"BETREIBER":"Wiener Linien","SE_ANNO_CAD_DATA":null}},{"type":"Feature","id":"AUFZUGOGD.1722","geometry":{"type":"Point","coordinates":[16.360379409660123,48.206628693583724]},"geometry_name":"SHAPE","properties":{"OBJECTID":1722,"STATION":"VOLKSTHEATER","LINIE":"U3","BEMERKUNG":"Aufzug fährt vom Zwischengeschoß an die Oberfläche Ausgang Volksgarten.","ANLAGEN_ID":"VT A06","GRUPPEN_ID":null,"BETREIBER":"Wiener Linien","SE_ANNO_CAD_DATA":null}},{"type":"Feature","id":"AUFZUGOGD.1723","geometry":{"type":"Point","coordinates":[16.358439864942284,48.205038024040036]},"geometry_name":"SHAPE","properties":{"OBJECTID":1723,"STATION":"VOLKSTHEATER","LINIE":"U3","BEMERKUNG":"Aufzug fährt vom Bahnsteig der Linie U3 zu dem Bahnsteig der Linie U2 (Richtung Schottenring) Ausgang Bellariastraße.","ANLAGEN_ID":"VT A03","GRUPPEN_ID":null,"BETREIBER":"Wiener Linien","SE_ANNO_CAD_DATA":null}},{"type":"Feature","id":"AUFZUGOGD.1724","geometry":{"type":"Point","coordinates":[16.359360975087974,48.20583733836144]},"geometry_name":"SHAPE","properties":{"OBJECTID":1724,"STATION":"VOLKSTHEATER","LINIE":"U3","BEMERKUNG":"Aufzug fährt vom Bahnsteig der Linie U3 ins Zwischengeschoß Aufgang Ring.","ANLAGEN_ID":"VT A04","GRUPPEN_ID":null,"BETREIBER":"Wiener Linien","SE_ANNO_CAD_DATA":null}},{"type":"Feature","id":"AUFZUGOGD.1695","geometry":{"type":"Point","coordinates":[16.34733106139342,48.197377788735444]},"geometry_name":"SHAPE","properties":{"OBJECTID":1695,"STATION":"ZIEGLERGASSE","LINIE":"U3","BEMERKUNG":"Aufzug fährt vom Gleis 2 Richtung Ottakring zu Gleis 1 Richtung Erdberg und zu Zwischengeschoß. (Ost)","ANLAGEN_ID":"GZ A04","GRUPPEN_ID":null,"BETREIBER":"Wiener Linien","SE_ANNO_CAD_DATA":null}},{"type":"Feature","id":"AUFZUGOGD.1696","geometry":{"type":"Point","coordinates":[16.347676303110173,48.19743010241933]},"geometry_name":"SHAPE","properties":{"OBJECTID":1696,"STATION":"ZIEGLERGASSE","LINIE":"U3","BEMERKUNG":"Aufzug fährt vom Zwischengeschoß (Ost) an die Oberfläche Ausgang Otto Bauer Gasse.","ANLAGEN_ID":"GZ A03","GRUPPEN_ID":null,"BETREIBER":"Wiener Linien","SE_ANNO_CAD_DATA":null}},{"type":"Feature","id":"AUFZUGOGD.1697","geometry":{"type":"Point","coordinates":[16.345327230659528,48.19695204315622]},"geometry_name":"SHAPE","properties":{"OBJECTID":1697,"STATION":"ZIEGLERGASSE","LINIE":"U3","BEMERKUNG":"Aufzug fährt vom Gleis 2 Richtung Ottakring zu Gleis 1 Richtung Erdberg und zu Zwischengeschoß. (West)","ANLAGEN_ID":"GZ A02","GRUPPEN_ID":null,"BETREIBER":"Wiener Linien","SE_ANNO_CAD_DATA":null}},{"type":"Feature","id":"AUFZUGOGD.1698","geometry":{"type":"Point","coordinates":[16.319006094871558,48.19821636497357]},"geometry_name":"SHAPE","properties":{"OBJECTID":1698,"STATION":"JOHNSTRASSE","LINIE":"U3","BEMERKUNG":"Aufzug fährt vom Zwischengeschoß zu Zwischengeschoß Ausgang Markt und an die Oberfläche.","ANLAGEN_ID":"JO A04","GRUPPEN_ID":null,"BETREIBER":"Wiener Linien","SE_ANNO_CAD_DATA":null}},{"type":"Feature","id":"AUFZUGOGD.1699","geometry":{"type":"Point","coordinates":[16.32163668637574,48.19753272008296]},"geometry_name":"SHAPE","properties":{"OBJECTID":1699,"STATION":"JOHNSTRASSE","LINIE":"U3","BEMERKUNG":"Aufzug fährt vom U3 Bahnsteig an die Oberfläche Ausgang Wasserwelt.","ANLAGEN_ID":"JO A01","GRUPPEN_ID":null,"BETREIBER":"Wiener Linien","SE_ANNO_CAD_DATA":null}},{"type":"Feature","id":"AUFZUGOGD.1700","geometry":{"type":"Point","coordinates":[16.31926129753297,48.19771212407622]},"geometry_name":"SHAPE","properties":{"OBJECTID":1700,"STATION":"JOHNSTRASSE","LINIE":"U3","BEMERKUNG":"Aufzug fährt vom U3 Bahnsteig ins Zwischengeschoß Aufgang Meiselmarkt.","ANLAGEN_ID":"JO A03","GRUPPEN_ID":null,"BETREIBER":"Wiener Linien","SE_ANNO_CAD_DATA":null}},{"type":"Feature","id":"AUFZUGOGD.1701","geometry":{"type":"Point","coordinates":[16.31103507271738,48.21030143772136]},"geometry_name":"SHAPE","properties":{"OBJECTID":1701,"STATION":"OTTAKRING","LINIE":"U3","BEMERKUNG":"Aufzug fährt vom Gleis 1 und 3 Richtung Erdberg an die Oberfläche Ausgang Koppstraße.","ANLAGEN_ID":"OK A04","GRUPPEN_ID":null,"BETREIBER":"Wiener Linien","SE_ANNO_CAD_DATA":null}},{"type":"Feature","id":"AUFZUGOGD.1702","geometry":{"type":"Point","coordinates":[16.311220199661065,48.21028244294018]},"geometry_name":"SHAPE","properties":{"OBJECTID":1702,"STATION":"OTTAKRING","LINIE":"U3","BEMERKUNG":"Aufzug fährt vom Gleis 2 Endstation an die Oberfläche Ausgang Koppstraße.","ANLAGEN_ID":"OK A03","GRUPPEN_ID":null,"BETREIBER":"Wiener Linien","SE_ANNO_CAD_DATA":null}},{"type":"Feature","id":"AUFZUGOGD.1703","geometry":{"type":"Point","coordinates":[16.311475877377724,48.21161499227078]},"geometry_name":"SHAPE","properties":{"OBJECTID":1703,"STATION":"OTTAKRING","LINIE":"U3","BEMERKUNG":"Aufzug fährt vom Gleis1 und 3 Richtung Simmering an die Oberfläche Ausgang Thaliastraße.","ANLAGEN_ID":"OK A01","GRUPPEN_ID":null,"BETREIBER":"Wiener Linien","SE_ANNO_CAD_DATA":null}},{"type":"Feature","id":"AUFZUGOGD.1725","geometry":{"type":"Point","coordinates":[16.358171606213755,48.20479845399405]},"geometry_name":"SHAPE","properties":{"OBJECTID":1725,"STATION":"VOLKSTHEATER","LINIE":"U3","BEMERKUNG":"Aufzug fährt vom Bahnsteig der Linie U3 auf den Bahnsteig der Linie  U2 (Richtung Karlsplatz) Ausgang Burggasse.","ANLAGEN_ID":"VT A02","GRUPPEN_ID":null,"BETREIBER":"Wiener Linien","SE_ANNO_CAD_DATA":null}},{"type":"Feature","id":"AUFZUGOGD.1726","geometry":{"type":"Point","coordinates":[16.359983063465958,48.20655897919428]},"geometry_name":"SHAPE","properties":{"OBJECTID":1726,"STATION":"VOLKSTHEATER","LINIE":"U3","BEMERKUNG":"Aufzug fährt vom Zwischengeschoß an die Oberfläche Ausgang Dr.Karl Renner Ring.","ANLAGEN_ID":"VT A05","GRUPPEN_ID":null,"BETREIBER":"Wiener Linien","SE_ANNO_CAD_DATA":null}},{"type":"Feature","id":"AUFZUGOGD.1727","geometry":{"type":"Point","coordinates":[16.38507328696094,48.20594144309101]},"geometry_name":"SHAPE","properties":{"OBJECTID":1727,"STATION":"LANDSTRASSE","LINIE":"U3","BEMERKUNG":"Aufzug fährt vom U3-Mittelbahnsteig in das Zwischengeschoß.","ANLAGEN_ID":"LA A03","GRUPPEN_ID":null,"BETREIBER":"Wiener Linien","SE_ANNO_CAD_DATA":null}},{"type":"Feature","id":"AUFZUGOGD.1728","geometry":{"type":"Point","coordinates":[16.39328030503511,48.201552317807995]},"geometry_name":"SHAPE","properties":{"OBJECTID":1728,"STATION":"ROCHUSGASSE","LINIE":"U3","BEMERKUNG":"Aufzug fährt vom Mittelbahnsteig in das Aufnahmegebäude Ausgang Rochusmarkt","ANLAGEN_ID":"RG A02","GRUPPEN_ID":null,"BETREIBER":"Wiener Linien","SE_ANNO_CAD_DATA":null}},{"type":"Feature","id":"AUFZUGOGD.1729","geometry":{"type":"Point","coordinates":[16.391353411350824,48.20256770122937]},"geometry_name":"SHAPE","properties":{"OBJECTID":1729,"STATION":"ROCHUSGASSE","LINIE":"U3","BEMERKUNG":"Aufzug fährt vom Mittelbahnsteig in das Aufnahmegebäude Ausgang Hainburger Straße","ANLAGEN_ID":"RG A01","GRUPPEN_ID":null,"BETREIBER":"Wiener Linien","SE_ANNO_CAD_DATA":null}},{"type":"Feature","id":"AUFZUGOGD.1730","geometry":{"type":"Point","coordinates":[16.310902814852565,48.20018056935861]},"geometry_name":"SHAPE","properties":{"OBJECTID":1730,"STATION":"HÜTTELDORFER STR.","LINIE":"U3","BEMERKUNG":"Aufzug fährt vom Bahnsteig an die Oberfläche Ausgang Feilplatz.","ANLAGEN_ID":"HH A02","GRUPPEN_ID":null,"BETREIBER":"Wiener Linien","SE_ANNO_CAD_DATA":null}},{"type":"Feature","id":"AUFZUGOGD.1731","geometry":{"type":"Point","coordinates":[16.311843976395817,48.19948081430649]},"geometry_name":"SHAPE","properties":{"OBJECTID":1731,"STATION":"HÜTTELDORFER STR.","LINIE":"U3","BEMERKUNG":"Aufzug fährt vom Bahnsteig an die Oberfläche Ausgang Hütteldorferstr./Breitenseerstraße.","ANLAGEN_ID":"HH A03","GRUPPEN_ID":null,"BETREIBER":"Wiener Linien","SE_ANNO_CAD_DATA":null}},{"type":"Feature","id":"AUFZUGOGD.1732","geometry":{"type":"Point","coordinates":[16.339103857177896,48.19716059380263]},"geometry_name":"SHAPE","properties":{"OBJECTID":1732,"STATION":"WESTBAHNHOF","LINIE":"U3","BEMERKUNG":"Aufzug fährt vom U6 Bahnsteig an die Oberfläche Westbahnhof.","ANLAGEN_ID":"WS A02","GRUPPEN_ID":null,"BETREIBER":"Wiener Linien","SE_ANNO_CAD_DATA":null}},{"type":"Feature","id":"AUFZUGOGD.1733","geometry":{"type":"Point","coordinates":[16.339508139135436,48.195970437276245]},"geometry_name":"SHAPE","properties":{"OBJECTID":1733,"STATION":"WESTBAHNHOF","LINIE":"U3","BEMERKUNG":"Aufzug fährt vom U3 Bahnsteig zu Zwischengeschoß (Stationswart)  und zum U6 Bahnsteig.","ANLAGEN_ID":"WS A04","GRUPPEN_ID":null,"BETREIBER":"Wiener Linien","SE_ANNO_CAD_DATA":null}},{"type":"Feature","id":"AUFZUGOGD.1734","geometry":{"type":"Point","coordinates":[16.340243856594835,48.19611661730371]},"geometry_name":"SHAPE","properties":{"OBJECTID":1734,"STATION":"WESTBAHNHOF","LINIE":"U3","BEMERKUNG":"Aufzug fährt vom Zwischengeschoß (Stationswart) zu Zwischengeschoß (Toilette) und an die Oberfläche (Innere Mariahilferstraße)","ANLAGEN_ID":"WS A07","GRUPPEN_ID":null,"BETREIBER":"Wiener Linien","SE_ANNO_CAD_DATA":null}},{"type":"Feature","id":"AUFZUGOGD.1735","geometry":{"type":"Point","coordinates":[16.336990707129154,48.195880644777716]},"geometry_name":"SHAPE","properties":{"OBJECTID":1735,"STATION":"WESTBAHNHOF","LINIE":"U3","BEMERKUNG":"Aufzug fährt vom U3 Bahnsteig an die Oberfläche Ausgang Gerstnergasse (Äusere Mariahilferstraße).","ANLAGEN_ID":"WS A12","GRUPPEN_ID":null,"BETREIBER":"Wiener Linien","SE_ANNO_CAD_DATA":null}},{"type":"Feature","id":"AUFZUGOGD.1736","geometry":{"type":"Point","coordinates":[16.339506188947905,48.195974111071685]},"geometry_name":"SHAPE","properties":{"OBJECTID":1736,"STATION":"WESTBAHNHOF","LINIE":"U3","BEMERKUNG":"Aufzug fährt vom U3 Bahnsteig zu Zwischengeschoß (Stationswart)  und zum U6 Bahnsteig.","ANLAGEN_ID":"WS A05","GRUPPEN_ID":null,"BETREIBER":"Wiener Linien","SE_ANNO_CAD_DATA":null}},{"type":"Feature","id":"AUFZUGOGD.1737","geometry":{"type":"Point","coordinates":[16.417705498643645,48.18529662487777]},"geometry_name":"SHAPE","properties":{"OBJECTID":1737,"STATION":"GASOMETER","LINIE":"U3","BEMERKUNG":"Aufzug fährt vom Bahnsteig der Linie U3 Gleis 2 an die Oberfläche Ausgang Modecenterstraße/Gasometer","ANLAGEN_ID":"AW A02","GRUPPEN_ID":null,"BETREIBER":"Wiener Linien","SE_ANNO_CAD_DATA":null}},{"type":"Feature","id":"AUFZUGOGD.1738","geometry":{"type":"Point","coordinates":[16.41751779658006,48.1853538650951]},"geometry_name":"SHAPE","properties":{"OBJECTID":1738,"STATION":"GASOMETER","LINIE":"U3","BEMERKUNG":"Aufzug fährt vom Bahnsteig der Linie U3 Gleis 1 an die Oberfläche Ausgang Modecenterstraße/Gasometer.","ANLAGEN_ID":"AW A01","GRUPPEN_ID":null,"BETREIBER":"Wiener Linien","SE_ANNO_CAD_DATA":null}},{"type":"Feature","id":"AUFZUGOGD.1739","geometry":{"type":"Point","coordinates":[16.380038204594882,48.206980125959234]},"geometry_name":"SHAPE","properties":{"OBJECTID":1739,"STATION":"STUBENTOR","LINIE":"U3","BEMERKUNG":"Aufzug fährt vom Seitenbahnsteig (Fahrtrichtung 2 nach Ottakring) auf den Seitenbahnsteig (Fahrtrichtung 1 nach Simmering) und in das Aufnahmegebäude Ausgang Parkring","ANLAGEN_ID":"SE A01","GRUPPEN_ID":null,"BETREIBER":"Wiener Linien","SE_ANNO_CAD_DATA":null}},{"type":"Feature","id":"AUFZUGOGD.1740","geometry":{"type":"Point","coordinates":[16.40743861135854,48.19412525388416]},"geometry_name":"SHAPE","properties":{"OBJECTID":1740,"STATION":"SCHLACHTHAUSGASSE","LINIE":"U3","BEMERKUNG":"Aufzug fährt vom Mittelbahnsteig in das Zwischengeschoß und in das stadtauswärtige Aufnahmegebäude Ausgang Markhofgasse","ANLAGEN_ID":"SG A01","GRUPPEN_ID":null,"BETREIBER":"Wiener Linien","SE_ANNO_CAD_DATA":null}},{"type":"Feature","id":"AUFZUGOGD.1741","geometry":{"type":"Point","coordinates":[16.405842806601342,48.194810724460034]},"geometry_name":"SHAPE","properties":{"OBJECTID":1741,"STATION":"SCHLACHTHAUSGASSE","LINIE":"U3","BEMERKUNG":"Aufzug fährt vom Mittelbahnsteig in das stadteinwärtige Aufnahmegebäude Ausgang Schlachthausgasse und Hainburger Weg Niveau +1","ANLAGEN_ID":"SG A02","GRUPPEN_ID":null,"BETREIBER":"Wiener Linien","SE_ANNO_CAD_DATA":null}},{"type":"Feature","id":"AUFZUGOGD.1742","geometry":{"type":"Point","coordinates":[16.421336848537578,48.16929872115664]},"geometry_name":"SHAPE","properties":{"OBJECTID":1742,"STATION":"SIMMERING","LINIE":"U3","BEMERKUNG":"Aufzug fährt vom Bahnsteig der Linie U3 in das Zwischengeschoß Ausgang Kaiserebersdorferstraße / Strachegasse.","ANLAGEN_ID":"SA A03","GRUPPEN_ID":null,"BETREIBER":"Wiener Linien","SE_ANNO_CAD_DATA":null}},{"type":"Feature","id":"AUFZUGOGD.1743","geometry":{"type":"Point","coordinates":[16.421122879364024,48.168970945817954]},"geometry_name":"SHAPE","properties":{"OBJECTID":1743,"STATION":"SIMMERING","LINIE":"U3","BEMERKUNG":"Aufzug fährt vom Zwischengeschoß an die Oberfläche Ausgang Strachegasse.","ANLAGEN_ID":"SA A04","GRUPPEN_ID":null,"BETREIBER":"Wiener Linien","SE_ANNO_CAD_DATA":null}},{"type":"Feature","id":"AUFZUGOGD.1744","geometry":{"type":"Point","coordinates":[16.399133007938232,48.19801449422856]},"geometry_name":"SHAPE","properties":{"OBJECTID":1744,"STATION":"KARDINAL-NAGL-PLATZ","LINIE":"U3","BEMERKUNG":"Aufzug fährt vom Mittelbahnsteig in das stadteinwärtige Aufnahmgebäude Ausgang Keinergasse","ANLAGEN_ID":"KN A01","GRUPPEN_ID":null,"BETREIBER":"Wiener Linien","SE_ANNO_CAD_DATA":null}},{"type":"Feature","id":"AUFZUGOGD.1745","geometry":{"type":"Point","coordinates":[16.260816151848868,48.196989922943736]},"geometry_name":"SHAPE","properties":{"OBJECTID":1745,"STATION":"HÜTTELDORF","LINIE":"U4","BEMERKUNG":"Aufzug fährt von der Passage auf den U4 Bahnsteig.","ANLAGEN_ID":"HF A01","GRUPPEN_ID":null,"BETREIBER":"Wiener Linien","SE_ANNO_CAD_DATA":null}},{"type":"Feature","id":"AUFZUGOGD.1746","geometry":{"type":"Point","coordinates":[16.36341045759929,48.22843158205878]},"geometry_name":"SHAPE","properties":{"OBJECTID":1746,"STATION":"FRIEDENSBRÜCKE","LINIE":"U4","BEMERKUNG":"Aufzug fährt vom Mittelbahnsteigende in das stadtauswärtige Aufnahmegebäude Ausgang Gussenbauergasse.","ANLAGEN_ID":"FB A01","GRUPPEN_ID":null,"BETREIBER":"Wiener Linien","SE_ANNO_CAD_DATA":null}},{"type":"Feature","id":"AUFZUGOGD.1747","geometry":{"type":"Point","coordinates":[16.343514004939895,48.1885902716137]},"geometry_name":"SHAPE","properties":{"OBJECTID":1747,"STATION":"MARGARETENGÜRTEL","LINIE":"U4","BEMERKUNG":"Aufzug fährt vom Bahnsteig Gleis 2 Richtung Hütteldorf an die Oberfläche.","ANLAGEN_ID":"MG A02","GRUPPEN_ID":null,"BETREIBER":"Wiener Linien","SE_ANNO_CAD_DATA":null}},{"type":"Feature","id":"AUFZUGOGD.1748","geometry":{"type":"Point","coordinates":[16.34353059298372,48.18846653780467]},"geometry_name":"SHAPE","properties":{"OBJECTID":1748,"STATION":"MARGARETENGÜRTEL","LINIE":"U4","BEMERKUNG":"Aufzug fährt vom Bahnsteig Gleis 1 Richtung Heiligenstadt an die Oberfläche.","ANLAGEN_ID":"MG A01","GRUPPEN_ID":null,"BETREIBER":"Wiener Linien","SE_ANNO_CAD_DATA":null}},{"type":"Feature","id":"AUFZUGOGD.1749","geometry":{"type":"Point","coordinates":[16.32908868777094,48.183652904245974]},"geometry_name":"SHAPE","properties":{"OBJECTID":1749,"STATION":"MEIDLING HAUPTSTRASSE","LINIE":"U4","BEMERKUNG":"Aufzug fährt vom Mittelbahnsteig an die Oberfläche Meidlinger Hauptstraße/Lobkowitzbrücke.","ANLAGEN_ID":"MH A01","GRUPPEN_ID":null,"BETREIBER":"Wiener Linien","SE_ANNO_CAD_DATA":null}},{"type":"Feature","id":"AUFZUGOGD.1750","geometry":{"type":"Point","coordinates":[16.27694529033962,48.19221743550651]},"geometry_name":"SHAPE","properties":{"OBJECTID":1750,"STATION":"OBER ST.VEIT","LINIE":"U4","BEMERKUNG":"Aufzug fährt vom Bahnsteig der Linie U4 Gleis 2 Richtung Hütteldorf an die Oberfläche.","ANLAGEN_ID":"OV A02","GRUPPEN_ID":null,"BETREIBER":"Wiener Linien","SE_ANNO_CAD_DATA":null}},{"type":"Feature","id":"AUFZUGOGD.1751","geometry":{"type":"Point","coordinates":[16.276933552815755,48.19210956087409]},"geometry_name":"SHAPE","properties":{"OBJECTID":1751,"STATION":"OBER ST.VEIT","LINIE":"U4","BEMERKUNG":"Aufzug fährt vom Bahnsteig der Linie U4 Gleis 1 Richtung Heiligenstadt an die Oberfläche.","ANLAGEN_ID":"OV A01","GRUPPEN_ID":null,"BETREIBER":"Wiener Linien","SE_ANNO_CAD_DATA":null}},{"type":"Feature","id":"AUFZUGOGD.1752","geometry":{"type":"Point","coordinates":[16.369035783157575,48.200502931208995]},"geometry_name":"SHAPE","properties":{"OBJECTID":1752,"STATION":"KARLSPLATZ","LINIE":"U4","BEMERKUNG":"Aufzug fährt vom U4 Bahnsteig in die Karlsplatzpassage.","ANLAGEN_ID":"KP A05","GRUPPEN_ID":null,"BETREIBER":"Wiener Linien","SE_ANNO_CAD_DATA":null}},{"type":"Feature","id":"AUFZUGOGD.1753","geometry":{"type":"Point","coordinates":[16.36582809963724,48.24861896341417]},"geometry_name":"SHAPE","properties":{"OBJECTID":1753,"STATION":"HEILIGENSTADT","LINIE":"U4","BEMERKUNG":"Aufzug fährt von der Passage auf den Mittelbahnsteig (Gleis 2, Gleis 4; Fahrtrichtung 2 nach Hütteldorf) und ÖBB-Seitenbahnsteig","ANLAGEN_ID":"HS A02","GRUPPEN_ID":null,"BETREIBER":"Wiener Linien","SE_ANNO_CAD_DATA":null}},{"type":"Feature","id":"AUFZUGOGD.1754","geometry":{"type":"Point","coordinates":[16.364534711831784,48.209181319388584]},"geometry_name":"SHAPE","properties":{"OBJECTID":1754,"STATION":"HERRENGASSE","LINIE":"U3","BEMERKUNG":"Aufzug fährt vom Bahnsteig der Linie U3 ins Zwischengeschoß Aufgang Minoritenplatz.","ANLAGEN_ID":"HZ A03","GRUPPEN_ID":null,"BETREIBER":"Wiener Linien","SE_ANNO_CAD_DATA":null}},{"type":"Feature","id":"AUFZUGOGD.1755","geometry":{"type":"Point","coordinates":[16.364658843550508,48.20919841174271]},"geometry_name":"SHAPE","properties":{"OBJECTID":1755,"STATION":"HERRENGASSE","LINIE":"U3","BEMERKUNG":"Aufzug fährt vom Zwischengeschoß an die Oberfläche Ausgang Herrengasse","ANLAGEN_ID":"HZ A01","GRUPPEN_ID":null,"BETREIBER":"Wiener Linien","SE_ANNO_CAD_DATA":null}},{"type":"Feature","id":"AUFZUGOGD.1756","geometry":{"type":"Point","coordinates":[16.36454206446912,48.20917338555319]},"geometry_name":"SHAPE","properties":{"OBJECTID":1756,"STATION":"HERRENGASSE","LINIE":"U3","BEMERKUNG":"Aufzug fährt vom Bahnsteig der Linie U3 ins Zwischengeschoß Aufgang Minoritenplatz.","ANLAGEN_ID":"HZ A02","GRUPPEN_ID":null,"BETREIBER":"Wiener Linien","SE_ANNO_CAD_DATA":null}},{"type":"Feature","id":"AUFZUGOGD.1757","geometry":{"type":"Point","coordinates":[16.41990612553702,48.17028853271984]},"geometry_name":"SHAPE","properties":{"OBJECTID":1757,"STATION":"SIMMERING","LINIE":"U3","BEMERKUNG":"Aufzug fährt vom Bahnsteig der Linie U3 an die Oberfläche Ausgang Simmeringer Hauptstraße und auf den ÖBB Bahnsteig.","ANLAGEN_ID":"SA A01","GRUPPEN_ID":null,"BETREIBER":"Wiener Linien","SE_ANNO_CAD_DATA":null}},{"type":"Feature","id":"AUFZUGOGD.1758","geometry":{"type":"Point","coordinates":[16.318454427013496,48.186252216675854]},"geometry_name":"SHAPE","properties":{"OBJECTID":1758,"STATION":"SCHÖNBRUNN","LINIE":"U4","BEMERKUNG":"Aufzug fährt vom Bahnsteig der Linie U4 Gleis 2 Richtung Hütteldorf an die Oberfläche.","ANLAGEN_ID":"SB A02","GRUPPEN_ID":null,"BETREIBER":"Wiener Linien","SE_ANNO_CAD_DATA":null}},{"type":"Feature","id":"AUFZUGOGD.1759","geometry":{"type":"Point","coordinates":[16.31838591147341,48.18613489720607]},"geometry_name":"SHAPE","properties":{"OBJECTID":1759,"STATION":"SCHÖNBRUNN","LINIE":"U4","BEMERKUNG":"Aufzug fährt vom Bahnsteig der Linie U4 Gleis 1 Richtung Heiligenstadt an die Oberfläche.","ANLAGEN_ID":"SB A01","GRUPPEN_ID":null,"BETREIBER":"Wiener Linien","SE_ANNO_CAD_DATA":null}},{"type":"Feature","id":"AUFZUGOGD.1768","geometry":{"type":"Point","coordinates":[16.295091977289193,48.18961269693227]},"geometry_name":"SHAPE","properties":{"OBJECTID":1768,"STATION":"BRAUNSCHWEIGGASSE","LINIE":"U4","BEMERKUNG":"Aufzug fährt vom Bahnsteig der Linie U4 Gleis 2 an die Oberfläche Steg/Rampe.","ANLAGEN_ID":"BR A02","GRUPPEN_ID":null,"BETREIBER":"Wiener Linien","SE_ANNO_CAD_DATA":null}},{"type":"Feature","id":"AUFZUGOGD.1769","geometry":{"type":"Point","coordinates":[16.295047045972126,48.18952226095247]},"geometry_name":"SHAPE","properties":{"OBJECTID":1769,"STATION":"BRAUNSCHWEIGGASSE","LINIE":"U4","BEMERKUNG":"Aufzug fährt vom Bahnsteig der Linie U4 Gleis 1 an die Oberfläche Steg/Rampe.","ANLAGEN_ID":"BR A01","GRUPPEN_ID":null,"BETREIBER":"Wiener Linien","SE_ANNO_CAD_DATA":null}},{"type":"Feature","id":"AUFZUGOGD.1770","geometry":{"type":"Point","coordinates":[16.379223627551287,48.23682903743284]},"geometry_name":"SHAPE","properties":{"OBJECTID":1770,"STATION":"DRESDNER STRASSE","LINIE":"U6","BEMERKUNG":"Aufzug fährt vom Mittelbahnsteig in das stadteinwärtige Aufnahmegebäude Ausgang Dresdner Straße","ANLAGEN_ID":"DS A02","GRUPPEN_ID":null,"BETREIBER":"Wiener Linien","SE_ANNO_CAD_DATA":null}},{"type":"Feature","id":"AUFZUGOGD.1771","geometry":{"type":"Point","coordinates":[16.38102069673985,48.237667500292936]},"geometry_name":"SHAPE","properties":{"OBJECTID":1771,"STATION":"DRESDNER STRASSE","LINIE":"U6","BEMERKUNG":"Aufzug fährt vom Mittelbahnsteig in das stadtauswärtige Aufnahmegebäude Ausgang Pasettistraße","ANLAGEN_ID":"DS A01","GRUPPEN_ID":null,"BETREIBER":"Wiener Linien","SE_ANNO_CAD_DATA":null}},{"type":"Feature","id":"AUFZUGOGD.1772","geometry":{"type":"Point","coordinates":[16.38475867629611,48.24184745198291]},"geometry_name":"SHAPE","properties":{"OBJECTID":1772,"STATION":"HANDELSKAI","LINIE":"U6","BEMERKUNG":"Aufzug fährt vom stadteinwärtigen Aufnahmegebäude Ausgang Engerthstraße auf den ÖBB-Bahnsteig (Richtung Wien Floridsdorf)","ANLAGEN_ID":"HK A05","GRUPPEN_ID":null,"BETREIBER":"Wiener Linien","SE_ANNO_CAD_DATA":null}},{"type":"Feature","id":"AUFZUGOGD.1773","geometry":{"type":"Point","coordinates":[16.38517154747547,48.24149274078423]},"geometry_name":"SHAPE","properties":{"OBJECTID":1773,"STATION":"HANDELSKAI","LINIE":"U6","BEMERKUNG":"Aufzug fährt vom stadteinwärtigen Aufnahmegebäude Ausgang Engerthstraße auf den U6-Bahnsteig (Fahrtrichtung 1 nach Floridsdorf)","ANLAGEN_ID":"HK A08","GRUPPEN_ID":null,"BETREIBER":"Wiener Linien","SE_ANNO_CAD_DATA":null}},{"type":"Feature","id":"AUFZUGOGD.1774","geometry":{"type":"Point","coordinates":[16.384924751343533,48.241680820971496]},"geometry_name":"SHAPE","properties":{"OBJECTID":1774,"STATION":"HANDELSKAI","LINIE":"U6","BEMERKUNG":"Aufzug fährt vom stadteinwärtigen Aufnahmegebäude Ausgang Engerthstraße auf den ÖBB-Bahnsteig (Richtung Wien Meidling und Flughafen)","ANLAGEN_ID":"HK A06","GRUPPEN_ID":null,"BETREIBER":"Wiener Linien","SE_ANNO_CAD_DATA":null}},{"type":"Feature","id":"AUFZUGOGD.1775","geometry":{"type":"Point","coordinates":[16.386021102298564,48.24209040744934]},"geometry_name":"SHAPE","properties":{"OBJECTID":1775,"STATION":"HANDELSKAI","LINIE":"U6","BEMERKUNG":"Aufzug fährt vom ÖBB-Mittelbahnsteig (S45) auf den U6-Bahnsteig (Fahrtrichtung 2 nach Siebenhirten)","ANLAGEN_ID":"HK A03","GRUPPEN_ID":null,"BETREIBER":"Wiener Linien","SE_ANNO_CAD_DATA":null}},{"type":"Feature","id":"AUFZUGOGD.1776","geometry":{"type":"Point","coordinates":[16.385003097418192,48.24165778677241]},"geometry_name":"SHAPE","properties":{"OBJECTID":1776,"STATION":"HANDELSKAI","LINIE":"U6","BEMERKUNG":"Aufzug fährt vom stadteinwärtigen Aufnahmegebäude Ausgang Engerthstraße auf den U6-Bahnsteig (Fahrtrichtung 2 nach Siebenhirten)","ANLAGEN_ID":"HK A07","GRUPPEN_ID":null,"BETREIBER":"Wiener Linien","SE_ANNO_CAD_DATA":null}},{"type":"Feature","id":"AUFZUGOGD.1777","geometry":{"type":"Point","coordinates":[16.38616229130127,48.2419777192748]},"geometry_name":"SHAPE","properties":{"OBJECTID":1777,"STATION":"HANDELSKAI","LINIE":"U6","BEMERKUNG":"Aufzug fährt vom ÖBB-Mittelbahnsteig (S45) auf den U6-Bahnsteig (Fahrtrichtung 1 nach Floridsdorf)","ANLAGEN_ID":"HK A04","GRUPPEN_ID":null,"BETREIBER":"Wiener Linien","SE_ANNO_CAD_DATA":null}},{"type":"Feature","id":"AUFZUGOGD.1778","geometry":{"type":"Point","coordinates":[16.385929745295908,48.24216500310382]},"geometry_name":"SHAPE","properties":{"OBJECTID":1778,"STATION":"HANDELSKAI","LINIE":"U6","BEMERKUNG":"Aufzug fährt vom ÖBB-Mittelbahnsteig (S45) auf den ÖBB-Seitenbahnsteig (Richtung Wien Meidling und Flughafen)","ANLAGEN_ID":"HK A02","GRUPPEN_ID":null,"BETREIBER":"Wiener Linien","SE_ANNO_CAD_DATA":null}},{"type":"Feature","id":"AUFZUGOGD.1779","geometry":{"type":"Point","coordinates":[16.38577674044655,48.24233956188316]},"geometry_name":"SHAPE","properties":{"OBJECTID":1779,"STATION":"HANDELSKAI","LINIE":"U6","BEMERKUNG":"Aufzug fährt vom ÖBB-Mittelbahnsteig (S45) auf den ÖBB-Seitenbahnsteig (Richtung Wien Floridsdorf)","ANLAGEN_ID":"HK A01","GRUPPEN_ID":null,"BETREIBER":"Wiener Linien","SE_ANNO_CAD_DATA":null}},{"type":"Feature","id":"AUFZUGOGD.1780","geometry":{"type":"Point","coordinates":[16.369760061579644,48.23523717491408]},"geometry_name":"SHAPE","properties":{"OBJECTID":1780,"STATION":"JÄGERSTRASSE","LINIE":"U6","BEMERKUNG":"Aufzug fährt vom Mittelbahnsteig in das stadtauswärtige Aufnahmegebäude Ausgang Jägerstraße","ANLAGEN_ID":"JG A01","GRUPPEN_ID":null,"BETREIBER":"Wiener Linien","SE_ANNO_CAD_DATA":null}},{"type":"Feature","id":"AUFZUGOGD.1781","geometry":{"type":"Point","coordinates":[16.367682381576596,48.2351949338143]},"geometry_name":"SHAPE","properties":{"OBJECTID":1781,"STATION":"JÄGERSTRASSE","LINIE":"U6","BEMERKUNG":"Aufzug fährt vom Mittelbahnsteig in das stadteinwärtige Aufnahmegebäude Ausgang Leipziger Platz","ANLAGEN_ID":"JG A02","GRUPPEN_ID":null,"BETREIBER":"Wiener Linien","SE_ANNO_CAD_DATA":null}},{"type":"Feature","id":"AUFZUGOGD.1782","geometry":{"type":"Point","coordinates":[16.33135000810745,48.173260612878366]},"geometry_name":"SHAPE","properties":{"OBJECTID":1782,"STATION":"BAHNHOF MEIDLING","LINIE":"U6","BEMERKUNG":"Aufzug fährt vom Bahnsteig der Linie U6 ins Zwischengeschoß (Zugang zur ÖBB) und an die Oberfläche Ausgang Schedifkaplatz.","ANLAGEN_ID":"PH A02","GRUPPEN_ID":null,"BETREIBER":"Wiener Linien","SE_ANNO_CAD_DATA":null}},{"type":"Feature","id":"AUFZUGOGD.1783","geometry":{"type":"Point","coordinates":[16.331515881601185,48.174800142208845]},"geometry_name":"SHAPE","properties":{"OBJECTID":1783,"STATION":"BAHNHOF MEIDLING","LINIE":"U6","BEMERKUNG":"Aufzug fährt vom Zwischengeschoß auf die Oberfläche Ausgang Wilhelmstraße.","ANLAGEN_ID":"PH A01","GRUPPEN_ID":null,"BETREIBER":"Wiener Linien","SE_ANNO_CAD_DATA":null}},{"type":"Feature","id":"AUFZUGOGD.1784","geometry":{"type":"Point","coordinates":[16.39449666465288,48.246244886206966]},"geometry_name":"SHAPE","properties":{"OBJECTID":1784,"STATION":"NEUE DONAU","LINIE":"U6","BEMERKUNG":"Aufzug fährt vom Aufnahmegebäude Ausgang Neue Donau auf den Bahnsteig (Fahrtrichtung 2 nach Siebenhirten)","ANLAGEN_ID":"ND A02","GRUPPEN_ID":null,"BETREIBER":"Wiener Linien","SE_ANNO_CAD_DATA":null}},{"type":"Feature","id":"AUFZUGOGD.1785","geometry":{"type":"Point","coordinates":[16.286547764891058,48.191105217561905]},"geometry_name":"SHAPE","properties":{"OBJECTID":1785,"STATION":"UNTER ST.VEIT","LINIE":"U4","BEMERKUNG":"Aufzug fährt vom Bahnsteig der Linie U4 Gleis 2 Richtung Hütteldorf an die Oberfläche.","ANLAGEN_ID":"UV A02","GRUPPEN_ID":null,"BETREIBER":"Wiener Linien","SE_ANNO_CAD_DATA":null}},{"type":"Feature","id":"AUFZUGOGD.1786","geometry":{"type":"Point","coordinates":[16.380291486487852,48.20311915289354]},"geometry_name":"SHAPE","properties":{"OBJECTID":1786,"STATION":"STADTPARK","LINIE":"U4","BEMERKUNG":"Aufzug fährt vom Bahnsteig der Linie U4 Gleis 1 Richtung Heiligenstadt an die Oberfläche.","ANLAGEN_ID":"ST A01","GRUPPEN_ID":null,"BETREIBER":"Wiener Linien","SE_ANNO_CAD_DATA":null}},{"type":"Feature","id":"AUFZUGOGD.1787","geometry":{"type":"Point","coordinates":[16.380078517138582,48.203263870786856]},"geometry_name":"SHAPE","properties":{"OBJECTID":1787,"STATION":"STADTPARK","LINIE":"U4","BEMERKUNG":"Aufzug fährt vom Bahnsteig der Linie U4 Gleis 2 Richtung Hütteldorf an die Oberfläche.","ANLAGEN_ID":"ST A02","GRUPPEN_ID":null,"BETREIBER":"Wiener Linien","SE_ANNO_CAD_DATA":null}},{"type":"Feature","id":"AUFZUGOGD.1788","geometry":{"type":"Point","coordinates":[16.394712645861457,48.246121036777375]},"geometry_name":"SHAPE","properties":{"OBJECTID":1788,"STATION":"NEUE DONAU","LINIE":"U6","BEMERKUNG":"Aufzug fährt vom Aufnahmegebäude Ausgang Neue Donau auf den Bahnsteig (Fahrtrichtung 1 nach Floridsdorf)","ANLAGEN_ID":"ND A01","GRUPPEN_ID":null,"BETREIBER":"Wiener Linien","SE_ANNO_CAD_DATA":null}},{"type":"Feature","id":"AUFZUGOGD.1760","geometry":{"type":"Point","coordinates":[16.365993871818944,48.248605278760735]},"geometry_name":"SHAPE","properties":{"OBJECTID":1760,"STATION":"HEILIGENSTADT","LINIE":"U4","BEMERKUNG":"Aufzug fährt von der Passage auf den Mittelbahnsteig (Gleis 1, Gleis 3; Fahrtrichtung 1 nach Heiligenstadt)","ANLAGEN_ID":"HS A01","GRUPPEN_ID":null,"BETREIBER":"Wiener Linien","SE_ANNO_CAD_DATA":null}},{"type":"Feature","id":"AUFZUGOGD.1761","geometry":{"type":"Point","coordinates":[16.367465785312167,48.22267513972342]},"geometry_name":"SHAPE","properties":{"OBJECTID":1761,"STATION":"ROSSAUER LÄNDE","LINIE":"U4","BEMERKUNG":"Aufzug fährt vom Seitenbahnsteigende (Gleis 2, Fahrtrichtung 2 nach Hütteldorf) in das stadtauswärtige Aufnahmegebäude Ausgang Seegasse","ANLAGEN_ID":"RL A02","GRUPPEN_ID":null,"BETREIBER":"Wiener Linien","SE_ANNO_CAD_DATA":null}},{"type":"Feature","id":"AUFZUGOGD.1762","geometry":{"type":"Point","coordinates":[16.3676188941967,48.222666373593185]},"geometry_name":"SHAPE","properties":{"OBJECTID":1762,"STATION":"ROSSAUER LÄNDE","LINIE":"U4","BEMERKUNG":"Aufzug fährt vom Seitenbahnsteigende (Gleis 1, Fahrtrichtung 1 nach Heiligenstadt) in das stadtauswärtige Aufnahmegebäude Ausgang Seegasse","ANLAGEN_ID":"RL A01","GRUPPEN_ID":null,"BETREIBER":"Wiener Linien","SE_ANNO_CAD_DATA":null}},{"type":"Feature","id":"AUFZUGOGD.1763","geometry":{"type":"Point","coordinates":[16.304466499529397,48.187529665099994]},"geometry_name":"SHAPE","properties":{"OBJECTID":1763,"STATION":"HIETZING","LINIE":"U4","BEMERKUNG":"Aufzug fährt vom Bahnsteig der Linie U4 Gleis 1 Richtung Heiligenstadt an die Oberfläche Kennedybrücke.","ANLAGEN_ID":"HI A01","GRUPPEN_ID":null,"BETREIBER":"Wiener Linien","SE_ANNO_CAD_DATA":null}},{"type":"Feature","id":"AUFZUGOGD.1764","geometry":{"type":"Point","coordinates":[16.30452334682879,48.187672448629904]},"geometry_name":"SHAPE","properties":{"OBJECTID":1764,"STATION":"HIETZING","LINIE":"U4","BEMERKUNG":"Aufzug fährt vom Bahnsteig der Linie U4 Gleis 2 Richtung Hütteldorf an die Oberfläche Kennedybrücke.","ANLAGEN_ID":"HI A02","GRUPPEN_ID":null,"BETREIBER":"Wiener Linien","SE_ANNO_CAD_DATA":null}},{"type":"Feature","id":"AUFZUGOGD.1765","geometry":{"type":"Point","coordinates":[16.370801206127478,48.20053096588913]},"geometry_name":"SHAPE","properties":{"OBJECTID":1765,"STATION":"KARLSPLATZ","LINIE":"U4","BEMERKUNG":"Aufzug führt von Passage Karlsplatz zur Oberfläche - Ausgang Künstlerhaus.","ANLAGEN_ID":"KP A08","GRUPPEN_ID":null,"BETREIBER":"Wiener Linien","SE_ANNO_CAD_DATA":null}},{"type":"Feature","id":"AUFZUGOGD.1766","geometry":{"type":"Point","coordinates":[16.357544786673383,48.19659936751264]},"geometry_name":"SHAPE","properties":{"OBJECTID":1766,"STATION":"KETTENBRÜCKENGASSE","LINIE":"U4","BEMERKUNG":"Aufzug fährt vom Bahnsteig der Linie U4 Gleis 2 Richtung Hütteldorf an die Oberfläche.","ANLAGEN_ID":"KG A02","GRUPPEN_ID":null,"BETREIBER":"Wiener Linien","SE_ANNO_CAD_DATA":null}},{"type":"Feature","id":"AUFZUGOGD.1767","geometry":{"type":"Point","coordinates":[16.35759930862455,48.19647879758937]},"geometry_name":"SHAPE","properties":{"OBJECTID":1767,"STATION":"KETTENBRÜCKENGASSE","LINIE":"U4","BEMERKUNG":"Aufzug fährt vom Bahnsteig der Linie U4 Gleis 1 Richtung Heiligenstadt an die Oberfläche.","ANLAGEN_ID":"KG A01","GRUPPEN_ID":null,"BETREIBER":"Wiener Linien","SE_ANNO_CAD_DATA":null}},{"type":"Feature","id":"AUFZUGOGD.1789","geometry":{"type":"Point","coordinates":[16.400462096745706,48.2562646846014]},